     2.11           OBSERVATION DATA    M (MIXED)           RINEX VERSION / TYPE
teqc  2016Apr1                          20181217 15:52:29UTCPGM / RUN BY / DATE
Linux 2.4.20-8|Pentium IV|gcc -static|Linux|486/DX+         COMMENT
teqc  2016Apr1                          20181217 15:20:33UTCCOMMENT
teqc  2016Apr1                          20170829 22:08:47UTCCOMMENT
teqc  2009Mar23                         20160101 01:05:06UTCCOMMENT
BIT 2 OF LLI FLAGS DATA COLLECTED UNDER A/S CONDITION       COMMENT
ALGO CACS-GSD 883160 Algonquin Park ON Canada               MARKER NAME
40104M002                                                   MARKER NUMBER
OPERATOR            NRCan/GEODETIC SURVEY OF CANADA         OBSERVER / AGENCY
618-01882           TPS NET-G3A         3.5 Jul,15,2011 p2 nREC # / TYPE / VERS
303                 AOAD/M_T        NONE                    ANT # / TYPE
   918129.4000 -4346071.2000  4561977.8000                  APPROX POSITION XYZ
        0.1000        0.0000        0.0000                  ANTENNA: DELTA H/E/N
     1     1                                                WAVELENGTH FACT L1/2
     6    L1    L2    P1    P2    C1    C2                  # / TYPES OF OBSERV
    30.0000                                                 INTERVAL
    17                                                      LEAP SECONDS
RINEXED from Topcon TPS-binary: ken.macleod@nrcan.gc.ca     COMMENT
Forced Modulo Decimation to 30 seconds                      COMMENT
This data is subject to the Open Government Licence -Canada COMMENT
http://open.canada.ca/en/open-government-licence-canada     COMMENT
 SNR is mapped to RINEX snr flag value [0-9]                COMMENT
  L1 & L2: min(max(int(snr_dBHz/6), 0), 9)                  COMMENT
pseudorange smoothing corrections not applied               COMMENT
teqc edited: GLONASS # 1 - 24 excluded                      COMMENT
teqc edited: all Galileo satellites excluded                COMMENT
teqc edited: GLONASS # 1 - 24 excluded                      COMMENT
teqc edited: all Galileo satellites excluded                COMMENT
teqc edited: GLONASS # 1 - 24 excluded                      COMMENT
teqc edited: all Galileo satellites excluded                COMMENT
  2016     1     1     0     0    0.0000000     GPS         TIME OF FIRST OBS
                                                            END OF HEADER
 16  1  1  0  0  0.0000000  0  9G26G23G29G03G25G14G31G16G32
 107822588.64248  84017624.15548  20517935.558    20517935.370    20517936.222
  20517935.460
 121838627.51947  94939194.24345  23185118.082    23185113.904    23185119.400

 121850599.53447  94948527.59746  23187393.998    23187391.435    23187394.169
  23187392.653
 114740260.62848  89407999.32247  21834338.031    21834336.784    21834338.416
  21834337.267
 130077035.24446 101358733.64046  24752823.940    24752824.820    24752824.503
  24752824.527
 125162283.73247  97529068.24043  23817565.842    23817563.176    23817565.934

 110327711.88248  85969668.19647  20994644.805    20994641.256    20994645.212
  20994641.658
 114245503.91248  89022490.14146  21740172.644    21740169.352    21740173.438

 117386888.67048  91470314.87646  22337972.605    22337971.446    22337974.321

 16  1  1  0  0 30.0000000  0  9G26G23G29G03G25G14G31G16G32
 107785559.06549  83988769.93948  20510889.312    20510889.072    20510889.773
  20510888.871
 121743904.37447  94865383.95345  23167093.622    23167088.851    23167094.281

 121836394.78747  94937459.14546  23184691.459    23184689.046    23184691.558
  23184689.881
 114764317.23248  89426744.89647  21838915.378    21838913.972    21838915.637
  21838914.860
 130187503.72146 101444813.16846  24773845.078    24773846.661    24773846.363
  24773845.777
 125259132.41146  97604534.68043  23835995.340    23835993.526    23835996.285

 110380197.51248  86010566.02747  21004632.350    21004628.871    21004632.970
  21004629.219
 114150927.16448  88948794.01946  21722174.926    21722171.906    21722175.984

 117467717.56047  91533298.40346  22353354.039    22353352.699    22353354.993

 16  1  1  0  1  0.0000000  0  9G26G23G29G03G25G14G31G16G32
 107749070.97149  83960337.66648  20503945.506    20503945.622    20503946.213
  20503945.713
 121649323.57647  94791684.67545  23149095.010    23149090.977    23149095.671

 121822760.64747  94926835.18346  23182096.428    23182093.422    23182096.315
  23182094.761
 114788960.01048  89445947.28647  21843604.392    21843603.639    21843604.964
  21843604.283
 130298073.51346 101530971.68046  24794885.778    24794885.231    24794886.469
  24794885.677
 125356164.30746  97680143.86143  23854460.093    23854458.855    23854460.906

 110432914.63848  86051644.35547  21014664.350    21014660.683    21014664.891
  21014661.263
 114056738.41648  88875400.22246  21704251.570    21704248.519    21704251.914

 117548883.39848  91596544.48046  22368799.151    22368798.464    22368800.923

 16  1  1  0  1 30.0000000  0  9G26G23G29G03G25G14G31G16G32
 107713124.92148  83932327.76148  20497105.322    20497105.268    20497105.949
  20497105.520
 121554886.93847  94718097.79745  23131123.885    23131120.463    23131124.753

 121809698.02147  94916656.40546  23179610.254    23179608.544    23179611.194
  23179609.088
 114814187.61848  89465605.37947  21848404.820    21848403.745    21848405.152
  21848404.101
 130408741.87646 101617206.92345  24815944.999    24815945.287    24815945.898
  24815945.053
 125453378.59746  97755895.12143  23872960.065    23872958.033    23872961.229

 110485861.83948  86092901.94447  21024739.882    21024736.122    21024740.277
  21024736.618
 113962939.96848  88802310.55946  21686402.018    21686399.038    21686402.650

 117630383.65848  91660051.13646  22384308.325    22384307.334    22384309.977

 16  1  1  0  2  0.0000000  0  9G26G23G29G03G25G14G31G16G32
 107677721.50748  83904740.68848  20490368.119    20490368.153    20490368.706
  20490368.382
 121460596.29247  94644624.60445  23113181.468    23113177.418    23113181.858

 121797207.92147  94906923.64646  23177234.236    23177231.776    23177234.469
  23177232.584
 114839998.80348  89485718.14047  21853316.404    21853315.757    21853316.823
  21853316.316
 130519506.79545 101703517.45245  24837021.574    24837021.933    24837023.191
  24837020.840
 125550773.88746  97831787.45843  23891493.255    23891491.575    23891494.619

 110539038.52148  86134338.37847  21034859.014    21034855.341    21034859.541
  21034855.900
 113869534.25148  88729526.92446  21668627.754    21668624.554    21668628.153

 117712215.64548  91723816.28946  22399880.682    22399879.435    22399881.839

 16  1  1  0  2 30.0000000  0  9G26G23G29G03G25G14G31G16G32
 107642861.28349  83877576.87048  20483734.660    20483734.517    20483735.352
  20483734.766
 121366454.25847  94571267.34145  23095265.979    23095262.134    23095267.313

 121785291.73047  94897637.98946  23174966.563    23174965.205    23174967.436
  23174965.514
 114866392.41948  89506284.68947  21858339.287    21858338.720    21858339.552
  21858338.969
 130630365.33145 101789900.79545  24858118.518    24858117.650    24858117.283
  24858117.416
 125648348.91746  97907819.88743  23910061.471    23910058.375    23910062.386

 110592443.49448  86175952.67847  21045021.612    21045017.889    21045021.914
  21045018.232
 113776523.51048  88657051.06246  21650928.264    21650925.533    21650928.856

 117794376.75447  91787837.91046  22415515.323    22415514.117    22415516.622

 16  1  1  0  3  0.0000000  0  9G26G23G29G03G25G14G31G16G32
 107608544.77848  83850836.75048  20477204.541    20477204.269    20477204.924
  20477204.456
 121272462.40247  94498027.03545  23077380.494    23077376.576    23077381.321

 121773951.42847  94888801.53546  23172808.651    23172806.102    23172809.558
  23172806.060
 114893367.24448  89527304.10147  21863472.189    21863471.408    21863472.031
  21863471.860
 130741315.11045 101876355.01845  24879231.002    24879231.224    24879231.308
  24879232.139
 125746102.38646  97983991.28043  23928662.894    23928662.996    23928664.078

 110646075.61748  86217743.92747  21055227.697    21055224.142    21055228.311
  21055224.738
 113683910.06148  88584884.77846  21633304.562    21633301.648    21633305.457

 117876864.38048  91852113.96246  22431212.256    22431210.870    22431213.624

 16  1  1  0  3 30.0000000  0  9G26G23G29G03G25G14G31G16G32
 107574772.55048  83824520.73148  20470777.886    20470777.734    20470778.382
  20470777.898
 121178622.55248  94424905.15145  23059523.828    23059518.646    23059523.961

 121763187.03247  94880414.00646  23170760.987    23170758.577    23170761.602
  23170758.963
 114920922.15248  89548775.52747  21868715.663    21868714.674    21868716.011
  21868715.162
 130852354.49345 101962879.04945  24900361.630    24900362.020    24900363.619
  24900363.836
 125844033.12946  98060300.88943  23947299.674    23947297.905    23947299.482

 110699934.34748  86259711.70447  21065476.598    21065472.892    21065477.096
  21065473.115
 113591695.90548  88513029.62746  21615756.458    21615753.389    21615757.632

 117959675.96248  91916642.42946  22446970.739    22446969.449    22446972.511

 16  1  1  0  4  0.0000000  0  9G26G23G29G03G25G14G31G16G32
 107541545.03549  83798629.16648  20464454.703    20464454.741    20464455.308
  20464454.584
 121084936.90847  94351903.32845  23041696.268    23041690.855    23041696.566

 121752999.13947  94872475.59746  23168821.615    23168818.864    23168822.182
  23168818.897
 114949055.80548  89570697.90747  21874069.429    21874068.735    21874068.864
  21874069.176
 130963480.72145 102049470.81245  24921507.355    24921509.806    24921509.172
  24921510.165
 125942140.44246  98136748.01943  23965966.970    23965965.573    23965968.122

 110754018.51548  86301855.17747  21075768.365    21075764.809    21075768.975
  21075764.898
 113499883.28448  88441487.35246  21598285.380    21598282.244    21598286.544

 118042808.78048  91981421.22046  22462790.095    22462788.443    22462791.374

 16  1  1  0  4 30.0000000  0  9G26G23G29G03G25G14G31G16G32
 107508862.77248  83773162.46448  20458235.411    20458235.599    20458236.107
  20458235.588
 120991407.81448  94279023.49645  23023897.512    23023891.988    23023897.971

 121743388.54247  94864986.95846  23166993.393    23166989.421    23166993.253
  23166989.608
 114977766.96048  89593070.26447  21879532.491    21879531.734    21879533.138
  21879532.298
 131074691.63645 102136128.57145  24942669.970    24942673.186    24942670.412
  24942670.841
 126040422.29546  98213331.21343  23984670.472    23984670.005    23984671.441

 110808327.04048  86344173.50147  21086102.991    21086099.247    21086103.414
  21086099.651
 113408474.66848  88370259.89746  21580890.916    21580887.888    21580892.294

 118126260.18247  92046448.25646  22478670.550    22478669.283    22478672.026

 16  1  1  0  5  0.0000000  0  9G26G23G29G03G25G14G31G16G32
 107476726.16748  83748120.95648  20452120.075    20452120.104    20452120.755
  20452120.008
 120898037.12947  94206267.11245  23006129.515    23006125.743    23006130.405

 121734355.64847  94857948.41046  23165273.597    23165271.185    23165274.629
  23165271.066
 115007054.26948  89615891.56747  21885106.110    21885104.801    21885106.376
  21885105.525
 131185985.01245 102222850.64045  24963848.001    24963851.071    24963849.562
  24963851.339
 126138877.52846  98290049.45043  24003406.836    24003404.232    24003405.862

 110862859.10548  86386665.97047  21096479.947    21096476.386    21096480.386
  21096476.540
 113317472.02048  88299348.77446  21563573.670    21563570.520    21563574.754

 118210027.60147  92111721.54145  22494611.288    22494609.528    22494612.618

 16  1  1  0  5 30.0000000  0  9G26G23G29G03G25G14G31G16G32
 107445135.67748  83723504.97748  20446108.620    20446108.624    20446109.265
  20446108.836
 120804827.35048  94133636.21145  22988392.338    22988388.053    22988393.839

 121725901.45747  94851360.71246  23163665.002    23163662.135    23163665.737
  23163662.312
 115036916.38348  89639160.75247  21890788.783    21890787.381    21890788.611
  21890787.492
 131297358.17345 102309634.87545  24985042.989    24985045.011    24985046.026
  24985045.710
 126237505.04547  98366901.97343  24022174.691    24022173.021    24022175.431

 110917613.70748  86429331.76747  21106899.547    21106896.185    21106899.825
  21106896.519
 113226877.54948  88228755.70846  21546334.205    21546330.923    21546334.837

 118294108.32748  92177238.95445  22510610.809    22510609.539    22510612.528

 16  1  1  0  6  0.0000000  0  9G26G23G29G03G25G14G31G16G32
 107414091.67248  83699314.84348  20440201.118    20440201.158    20440201.747
  20440201.079
 120711779.95147  94061131.77945  22970686.127    22970681.349    22970687.433

 121718027.18347  94845224.97946  23162166.813    23162164.200    23162167.252
  23162164.633
 115067352.02148  89662876.82147  21896580.532    21896578.835    21896580.694
  21896579.481
 131408808.39745 102396479.02645  25006248.259    25006268.233    25006253.350
  25006255.517
 126336303.72946  98443887.83743  24040974.567    24040973.718    24040975.709

 110972590.58748  86472170.99547  21117361.308    21117357.634    21117361.711
  21117358.321
 113136693.84648  88158482.73346  21529172.521    21529169.874    21529173.471

 118378499.75347  92242998.47146  22526670.578    22526668.666    22526671.746

 16  1  1  0  6 30.0000000  0  9G26G23G29G03G25G14G31G16G32
 107383594.69049  83675550.95648  20434397.653    20434397.743    20434398.131
  20434397.664
 120618897.42847  93988755.91745  22953011.283    22953006.636    22953011.762

 121710733.37047  94839541.53946  23160778.634    23160775.935    23160779.255
  23160776.717
 115098359.73948  89687038.67647  21902480.971    21902479.717    21902480.704
  21902480.674
 131520334.48245                                                  25027476.781
  25027477.085
 126435272.11846  98521005.98043  24059808.237    24059806.479    24059810.213

 111027787.85448  86515181.82347  21127865.132    21127861.426    21127865.408
  21127861.503
 113046923.01548  88088531.48346  21512089.648    21512086.738    21512090.829

 118463199.13848  92308997.95845  22542788.228    22542786.846    22542789.766

 16  1  1  0  7  0.0000000  0  9G26G23G29G03G25G14G31G16G32
 107353645.02748  83652213.55848  20428698.338    20428698.554    20428699.065
  20428698.461
 120526181.68848  93916509.94945  22935367.656    22935363.226    22935368.678

 121704020.68247  94834310.93246  23159500.805    23159499.018    23159501.107
  23159498.789
 115129938.16748  89711645.23647  21908489.953    21908488.461    21908489.884
  21908489.428
 131631933.43744                                                  25048711.028
  25048714.699
 126534409.17346  98598255.52943  24078673.342    24078670.942    24078673.874

 111083204.46348  86558363.51947  21138410.402    21138406.646    21138410.829
  21138407.421
 112957566.55548  88018903.10046  21495085.580    21495082.525    21495086.958

 118548203.87648  92375235.38445  22558964.069    22558962.659    22558965.451

 16  1  1  0  7 30.0000000  0  8G26G23G29G03G14G31G16G32
 107324243.02748  83629302.89948  20423103.783    20423103.684    20423104.382
  20423103.584
 120433634.67848  93844395.38145  22917756.942    22917751.900    22917757.617

 121697889.84447  94829533.64746  23158333.926    23158331.422    23158334.633
  23158332.446
 115162085.93047  89736695.44347  21914607.436    21914606.597    21914607.594
  21914607.052
 126633713.32946  98675635.29243  24097570.052    24097568.168    24097570.946

 111138840.24148  86601716.08847  21148997.508    21148994.031    21148998.003
  21148994.377
 112868626.93648  87949599.53446  21478160.885    21478157.744    21478161.997

 118633511.26947  92441708.66145  22575197.871    22575196.584    22575198.877

 16  1  1  0  8  0.0000000  0  9G26G23G29G03G25G14G31G16G32
 107295389.02848  83606819.25148  20417612.785    20417612.807    20417613.605
  20417613.167
 120341258.85847  93772414.26145  22900178.102    22900173.726    22900179.163

 121692341.53447  94825210.27146  23157279.038    23157275.635    23157279.202
  23157276.434
 115194801.51948  89762188.11247  21920833.025    21920832.186    21920833.099
  21920832.701
 131855340.76544                                                  25091227.323
  25091228.278
 126733183.56046  98753144.50743  24116498.528    24116497.451    24116499.427

 111194694.37048  86645238.87847  21159626.126    21159622.640    21159626.655
  21159623.176
 112780106.49348  87880622.59346  21461316.073    21461313.040    21461317.150

 118719118.72747  92508415.73546  22591488.313    22591486.776    22591489.634

 16  1  1  0  8 30.0000000  0  9G26G23G29G03G25G14G31G16G32
 107267083.37649  83584762.89148  20412226.586    20412226.432    20412227.219
  20412226.627
 120249056.32547  93700568.18745  22882632.601    22882627.477    22882633.252

 121687376.44447  94821341.27846  23156333.443    23156331.327    23156334.045
  23156331.619
 115228083.43147  89788122.03647  21927166.343    21927165.389    21927166.462
  21927166.093
 131967145.14844                                                  25112505.210
  25112506.246
 126832818.60046  98830782.07943  24135458.734    24135458.199    24135458.731

 111250765.81448  86688931.00647  21170296.211    21170292.394    21170296.342
  21170292.717
 112692007.58448  87811974.12846  21444551.451    21444548.321    21444552.858

 118805023.32747  92575354.36646  22607835.649    22607833.832    22607836.544

 16  1  1  0  9  0.0000000  0  9G26G23G29G03G25G14G31G16G32
 107239326.36048  83563134.03448  20406944.626    20406944.583    20406945.371
  20406944.499
 120157029.18347  93628858.87445  22865120.340    22865115.861    22865120.650

 121682994.71747  94817926.72446  23155500.219    23155497.826    23155500.711
  23155498.838
 115261930.18948  89814496.11347  21933607.173    21933606.379    21933607.770
  21933606.589
 132079014.51244                                                  25133790.252
  25133795.023
 126932617.23346  98908547.13843  24154450.134    24154448.816    24154449.974

 111307053.10448  86732791.27147  21181007.384    21181003.535    21181007.577
  21181004.023
 112604331.84848  87743655.40746  21427867.042    21427864.109    21427868.362

 118891222.61247  92642522.60845  22624238.244    22624237.350    22624240.017

 16  1  1  0  9 30.0000000  0  9G26G23G29G03G25G14G31G16G32
 107212118.28248  83541932.93948  20401767.044    20401766.994    20401767.421
  20401767.124
 120065179.33947  93557287.59245  22847641.452    22847636.684    22847642.225

 121679197.04947  94814967.16446  23154777.769    23154774.697    23154778.051
  23154775.747
 115296340.33848  89841309.20047  21940155.302    21940154.395    21940155.429
  21940154.452
 132190944.87344                                                  25155093.768
  25155094.123
 127032577.64946  98986438.26043  24173472.683    24173470.059    24173473.545

 111363555.58748  86776819.16747  21191759.476    21191755.743    21191759.858
  21191755.946
 112517081.35948  87675668.08546  21411263.891    21411260.385    21411265.258

 118977713.89848  92709918.39345  22640697.273    22640696.289    22640698.700

 16  1  1  0 10  0.0000000  0  8G26G23G29G03G14G31G16G32
 107185459.30648  83521159.67548  20396693.962    20396693.814    20396694.596
  20396693.980
 119973508.81048  93485855.94345  22830197.348    22830192.673    22830198.106

 121675984.69447  94812463.81046  23154166.609    23154164.510    23154166.792
  23154165.072
 115331312.26647  89868560.03747  21946810.459    21946809.003    21946810.436
  21946809.304
 127132698.95846  99064454.78943  24192524.668    24192522.962    24192525.864

 111420272.40148  86821014.13147  21202552.134    21202548.315    21202552.586
  21202548.536
 112430258.08548  87608013.60546  21394741.818    21394738.797    21394743.091

 119064494.35047  92777539.49445  22657211.145    22657210.138    22657212.213

 16  1  1  0 10 30.0000000  0  8G26G23G29G03G14G31G16G32
 107159349.73548  83500814.53148  20391725.473    20391725.520    20391726.392
  20391725.450
 119882020.07947  93414565.97945  22812788.017    22812782.687    22812788.615

 121673358.20047  94810417.22346  23153666.815    23153663.914    23153666.559
  23153665.162
 115366844.39847  89896247.40647  21953572.146    21953570.617    21953572.237
  21953571.294
 127232979.70646  99142595.53043  24211606.578    24211605.262    24211608.726

 111477202.65548  86865375.33647  21213385.696    21213381.911    21213386.004
  21213382.409
 112343864.77448  87540694.21246  21378301.944    21378298.544    21378303.252

 119151561.26247  92845383.81945  22673779.339    22673778.225    22673780.864

 16  1  1  0 11  0.0000000  0  8G26G23G29G03G14G31G16G32
 107133789.77048  83480897.63448  20386861.541    20386861.586    20386861.931
  20386861.549
 119790715.26348  93343419.41845  22795412.946    22795408.421    22795413.995

 121671317.73247  94808827.31646  23153278.259    23153275.521    23153278.616
  23153276.503
 115402935.21348  89924370.10347  21960439.913    21960438.702    21960439.648
  21960439.224
 127333418.68046  99220859.62443  24230719.855    24230719.908    24230721.686

 111534345.46048  86909902.11247  21224259.884    21224255.992    21224259.953
  21224256.341
 112257903.20248  87473711.26246  21361943.934    21361940.587    21361944.704

 119238912.01047  92913449.30245  22690401.798    22690400.294    22690402.849

 16  1  1  0 11 30.0000000  0  8G26G23G29G03G14G31G16G32
 107108779.52748  83461409.05248  20382102.331    20382102.486    20382103.214
  20382102.487
 119699596.55248  93272417.95545  22778073.550    22778069.536    22778074.070

 121669863.80547  94807694.49246  23153000.881    23152999.484    23153001.782
  23152999.992
 115439583.05648  89952926.84447  21967413.560    21967412.284    21967414.108
  21967413.268
 127434014.49946  99299245.87743  24249862.335    24249861.979    24249863.569

 111591699.99748  86954593.89447  21235173.744    21235170.304    21235174.244
  21235170.523
 112172375.19448  87407066.11546  21345668.286    21345665.258    21345669.684

 119326543.88348  92981733.86545  22707077.372    22707075.968    22707078.388

 16  1  1  0 12  0.0000000  0  8G26G23G29G03G14G31G16G32
 107084318.85549  83442348.47848  20377447.925    20377448.036    20377448.608
  20377448.318
 119608665.97148  93201562.98245  22760770.099    22760766.054    22760771.143

 121668996.81447  94807019.08546  23152837.111    23152834.045    23152837.292
  23152835.192
 115476786.28247  89981916.36147  21974493.233    21974492.063    21974493.393
  21974492.219
 127534765.64646  99377753.17543  24269036.253    24269033.584    24269036.521

 111649265.05748  86999449.72647  21246128.183    21246124.523    21246128.669
  21246124.668
 112087282.79948  87340760.35146  21329475.882    21329472.746    21329477.071

 119414454.11847  93050235.32745  22723805.916    22723805.221    22723807.455

 16  1  1  0 12 30.0000000  0  8G26G23G29G03G14G31G16G32
 107060409.05748  83423717.52248  20372897.889    20372898.019    20372898.404
  20372898.188
 119517925.57648  93130856.16445  22743502.641    22743498.052    22743503.276

 121668717.01147  94806801.06346  23152783.104    23152781.298    23152783.105
  23152782.405
 115514543.27048  90011337.38247  21981677.997    21981677.203    21981678.324
  21981677.620
 127635671.22546  99456380.88243  24288236.451    24288236.614    24288238.192

 111707040.21048  87044469.30847  21257122.626    21257119.020    21257122.933
  21257119.740
 112002628.08548  87274795.63746  21313366.383    21313363.450    21313367.283

 119502640.01647  93118951.57145  22740587.447    22740586.130    22740589.363

 16  1  1  0 13  0.0000000  0  8G26G23G29G03G14G31G16G32
 107037049.28149  83405515.02048  20368452.733    20368452.921    20368453.416
  20368452.915
 119427377.68948  93060299.35045  22726271.894    22726267.948    22726272.657

 121669024.57847  94807040.67046  23152841.755    23152839.400    23152841.897
  23152839.734
 115552852.34448  90041188.57847  21988968.244    21988966.952    21988968.000
  21988967.517
 127736729.75646  99535127.65743  24307468.683    24307468.115    24307468.884

 111765024.40848  87089651.81847  21268156.487    21268152.833    21268156.776
  21268153.631
 111918413.01548  87209173.46546  21297341.028    21297337.767    21297342.174

 119591098.83447  93187880.50045  22757420.504    22757419.045    22757421.918

 16  1  1  0 13 30.0000000  0  8G26G23G29G03G14G31G16G32
 107014239.63448  83387741.05348  20364112.512    20364112.617    20364112.972
  20364112.607
 119337024.35847  92989894.10945  22709078.639    22709074.223    22709079.225

 121669920.33047  94807738.51946  23153012.282    23153010.218    23153012.470
  23153009.853
 115591711.76848  90071468.64447  21996362.779    21996361.536    21996362.839
  21996361.896
 127837939.79546  99613992.54643  24326727.518    24326727.094    24326728.453

 111823216.33348  87134996.04847  21279230.106    21279226.697    21279230.374
  21279227.180
 111834639.84148  87143895.64246  21281399.429    21281396.199    21281400.481

 119679827.76747  93257019.89945  22774305.036    22774303.437    22774306.590

 16  1  1  0 14  0.0000000  0  8G26G23G29G03G14G31G16G32
 106991980.71049  83370396.32148  20359876.859    20359877.011    20359877.647
  20359877.448
 119246868.31647  92919642.79345  22691922.090    22691917.511    22691923.022

 121671404.44847  94808894.85546  23153294.502    23153292.543    23153294.998
  23153292.027
 115631119.85648  90102176.23247  22003862.202    22003860.932    22003862.171
  22003861.445
 127939299.94046  99692974.40343  24346015.788    24346014.870    24346016.576

 111881615.94048  87180502.32747  21290343.360    21290339.473    21290343.723
  21290339.921
 111751310.86948  87078963.99646  21265542.293    21265539.488    21265543.553

 119768824.26047  93326367.79145  22791240.801    22791239.633    22791241.838

 16  1  1  0 14 30.0000000  0  8G26G23G29G03G14G31G16G32
 106970272.54148  83353480.84548  20355746.047    20355746.072    20355746.649
  20355746.266
 119156910.97048  92849546.03545  22674803.846    22674799.604    22674804.794

 121673477.52047  94810510.14446  23153690.218    23153687.528    23153689.913
  23153687.723
 115671074.84547  90133309.96647  22011464.897    22011464.137    22011464.958
  22011465.092
 128040808.94746  99772072.25043  24365333.233    24365331.958    24365333.716

 111940222.21948  87226169.73047  21301495.540    21301492.004    21301495.970
  21301492.668
 111668427.17348  87014379.33746  21249770.173    21249766.959    21249771.135

 119858085.38747  93395921.88945  22808226.457    22808224.848    22808227.523

 16  1  1  0 15  0.0000000  0  8G26G23G29G03G14G31G16G32
 106949114.91849  83336994.31348  20351719.754    20351720.008    20351720.242
  20351719.685
 119067155.02848  92779606.27345  22657724.060    22657719.038    22657725.425

 121676139.84947  94812584.62446  23154196.348    23154193.930    23154196.589
  23154194.749
 115711574.98548  90164868.50147  22019172.261    22019171.169    22019172.425
  22019171.624
 128142465.40746  99851284.98443  24384677.429    24384676.390    24384679.390

 111999033.65148  87271996.86247  21312686.910    21312683.308    21312687.359
  21312683.899
 111585991.30048  86950143.62546  21234083.039    21234080.020    21234084.233

 119947608.47047  93465680.10145  22825262.166    22825261.013    22825263.067

 16  1  1  0 15 30.0000000  0  8G26G23G29G03G14G31G16G32
 106928508.23249  83320937.21448  20347798.582    20347798.609    20347798.987
  20347799.221
 118977602.35148  92709824.80545  22640683.360    22640678.614    22640683.866

 121679391.35647  94815118.18846  23154814.519    23154813.435    23154815.409
  23154813.631
 115752618.49748  90196850.44347  22026982.329    22026981.392    22026982.651
  22026981.551
 128244268.07546  99930611.67043  24404049.621    24404049.344    24404051.009

 112058049.66648  87317983.39947  21323917.177    21323913.553    21323917.625
  21323913.893
 111504005.45348  86886258.58546  21218481.452    21218478.751    21218482.946

 120037390.89547  93535640.40545  22842346.763    22842345.482    22842348.709

 16  1  1  0 16  0.0000000  0  8G26G23G29G03G14G31G16G32
 106908452.04048  83305308.97948  20343981.901    20343982.139    20343982.500
  20343982.261
 118888255.75747  92640204.07045  22623681.367    22623676.212    22623681.628

 121683232.21147  94818110.93046  23155545.332    23155542.923    23155545.740
  23155543.417
 115794203.55548  90229254.36047  22034895.507    22034894.587    22034895.993
  22034894.912
 128346215.54946 100010051.20343  24423450.310    24423447.921    24423451.776

 112117269.47848  87364128.71447  21335186.422    21335182.664    21335187.056
  21335183.116
 111422470.61148  86822724.99546  21202965.999    21202962.956    21202966.972

 120127429.71647  93605800.50145  22859480.882    22859479.295    22859482.254

 16  1  1  0 16 30.0000000  0  8G26G23G29G03G14G31G16G32
 106888946.54449  83290109.86448  20340270.019    20340270.335    20340270.671
  20340270.179
 118799117.53748  92570745.94646  22606717.932    22606713.373    22606718.937

 121687664.10447  94821564.58946  23156389.188    23156386.629    23156389.872
  23156386.616
 115836328.33448  90262078.84147  22042911.907    22042910.875    22042912.130
  22042911.678
 128448306.58046 100089602.63843  24442878.278    24442874.519    24442877.993

 112176692.04048  87410431.95547  21346494.120    21346490.373    21346494.318
  21346490.711
 111341389.53748  86759544.96446  21187536.735    21187533.709    21187537.738

 120217722.37348  93676158.38845  22876663.247    22876661.802    22876664.566

 16  1  1  0 17  0.0000000  0  8G26G23G29G03G14G31G16G32
 106869991.94948  83275340.12448  20336663.199    20336663.247    20336663.448
  20336663.691
 118710189.37448  92501451.46946  22589795.537    22589790.811    22589796.541

 121692685.65247  94825477.55246  23157344.381    23157341.875    23157345.318
  23157342.631
 115878990.99748  90295322.45047  22051030.348    22051029.416    22051030.377
  22051029.636
 128550539.59646 100169264.64643  24462331.314    24462330.260    24462332.300

 112236316.49848  87456892.45747  21357840.497    21357836.659    21357840.772
  21357836.997
 111260763.88548  86696719.83046  21172194.179    21172191.019    21172195.275

 120308266.02547  93746711.84545  22893892.571    22893892.219    22893894.290

 16  1  1  0 17 30.0000000  0  8G26G23G29G03G14G31G16G32
 106851587.67148  83260999.06148  20333160.927    20333161.104    20333161.591
  20333161.041
 118621473.12748  92432321.97646  22572913.862    22572908.544    22572914.269

 121698296.86147  94829849.92546  23158412.040    23158409.713    23158412.577
  23158410.711
 115922189.70247  90328983.75447  22059250.575    22059250.343    22059251.008
  22059250.824
 128652913.68346 100249036.57943  24481812.135    24481811.062    24481813.435

 112296142.92848  87503510.54147  21369224.686    21369221.327    21369225.266
  21369221.578
 111180595.17748  86634250.75346  21156938.608    21156935.567    21156939.559

 120399057.83647  93817458.69245  22911170.214    22911169.277    22911171.471

 16  1  1  0 18  0.0000000  0  8G26G23G29G03G14G31G16G32
 106833734.00648  83247087.07348  20329763.426    20329763.684    20329764.138
  20329763.724
 118532971.51548  92363359.71746  22556071.572    22556067.474    22556072.595

 121704499.00947  94834682.75546  23159591.811    23159590.355    23159592.559
  23159590.413
 115965922.53248  90363061.26147  22067573.175    22067572.152    22067573.097
  22067572.771
 128755426.87646 100328916.97243  24501320.874    24501319.427    24501321.720

 112356169.50948  87550284.43547  21380647.570    21380644.064    21380648.233
  21380644.375
 111100885.76848  86572139.56946  21141770.466    21141767.527    21141771.864

 120490095.09647  93888396.79045  22928494.294    22928492.919    22928495.286

 16  1  1  0 18 30.0000000  0  8G26G23G29G03G14G31G16G32
 106816430.78748  83233603.98948  20326470.835    20326470.999    20326471.411
  20326471.280
 118444686.67448  92294566.35546  22539272.408    22539267.663    22539273.015

 121711291.58547  94839975.69646  23160885.602    23160882.429    23160886.528
  23160882.864
 116010187.58648  90397553.48247  22075996.305    22075995.388    22075996.620
  22075995.927
 128858077.98746 100408904.74843  24520854.662    24520854.188    24520855.856

 112416395.62848  87597213.90647  21392108.353    21392104.670    21392108.836
  21392105.227
 111021637.22748  86510387.50946  21126689.853    21126686.587    21126690.745

 120581375.09247  93959524.03345  22945863.815    22945862.956    22945865.846

 16  1  1  0 19  0.0000000  0  8G26G23G29G03G14G31G16G32
 106799678.03249  83220549.88948  20323282.937    20323283.150    20323283.487
  20323282.775
 118356620.72747  92225943.41846  22522513.399    22522509.282    22522514.453

 121718674.89047  94845729.02746  23162289.832    23162287.829    23162290.279
  23162287.805
 116054982.95548  90432458.95647  22084520.537    22084519.843    22084520.675
  22084520.283
 128960865.30646 100488998.72843  24540415.038    24540413.141    24540415.708

 112476820.51848  87644298.27947  21403606.726    21403602.859    21403606.762
  21403603.613
 110942851.56448  86448996.13246  21111697.348    21111694.441    21111698.695

 120672895.00447  94030838.21045  22963279.882    22963278.798    22963281.129

 16  1  1  0 19 30.0000000  0  8G26G23G29G03G14G31G16G32
 106783475.55748  83207924.57048  20320199.745    20320199.878    20320200.092
  20320200.285
 118268775.85148  92157492.53146  22505797.778    22505793.391    22505798.760

 121726648.84947  94851942.62646  23163807.020    23163804.632    23163807.559
  23163804.732
 116100306.65847  90467776.11147  22093145.451    22093144.696    22093145.507
  22093145.556
 129063788.10646 100569198.23443  24559998.828    24559999.538    24560000.706

 112537442.89348  87691536.39647  21415142.758    21415139.126    21415143.182
  21415139.286
 110864530.93948  86387967.15047  21096793.471    21096790.473    21096794.727

 120764652.09547  94102337.22745  22980740.684    22980739.315    22980742.272

 16  1  1  0 20  0.0000000  0  8G26G23G29G03G14G31G16G32
 106767823.09749  83195727.80748  20317221.150    20317221.560    20317222.018
  20317221.473
 118181154.57348  92089215.90646  22489124.404    22489119.602    22489125.064

 121735213.50547  94858616.46346  23165437.631    23165434.669    23165438.258
  23165435.010
 116146156.75348  90503503.43947  22101870.586    22101869.912    22101870.722
  22101870.370
 129166844.55646 100649501.91143  24579611.287    24579608.672    24579611.716

 112598262.52748  87738928.11547  21426716.683    21426712.857    21426717.012
  21426713.041
 110786676.54748  86327301.43346  21081978.190    21081975.176    21081979.426

 120856643.63447  94174018.92045  22998245.811    22998244.878    22998247.538

 16  1  1  0 20 30.0000000  0  8G26G23G29G03G14G31G16G32
 106752720.67848  83183959.67548  20314347.298    20314347.543    20314347.973
  20314347.485
 118093760.48948  92021116.99046  22472493.164    22472488.662    22472494.102

 121744368.91947  94865750.52346  23167179.356    23167177.449    23167179.630
  23167177.952
 116192531.27448  90539639.42347  22110695.039    22110694.851    22110695.335
  22110695.150
 129270033.32446 100729908.70443  24599247.832    24599245.856    24599247.529

 112659278.44748  87786472.97347  21438327.506    21438323.976    21438327.971
  21438324.209
 110709290.63848  86267000.76647  21067252.356    21067248.993    21067253.540

 120948866.81847  94245881.11145  23015795.322    23015794.927    23015796.875

 16  1  1  0 21  0.0000000  0  8G26G23G29G03G14G31G16G32
 106738167.97748  83172619.88048  20311577.911    20311578.306    20311578.616
  20311578.418
 118006594.99348  91953196.49046  22455906.119    22455901.206    22455906.854

 121754114.81747  94873344.69046  23169033.733    23169031.649    23169034.284
  23169031.981
 116239428.13847  90576182.41347  22119619.203    22119618.503    22119619.667
  22119619.017
 129373353.17646 100810417.59643  24618909.631    24618906.657    24618909.109

 112720490.42148  87834170.77647  21449975.686    21449971.930    21449976.081
  21449972.352
 110632374.98748  86207066.52047  21052615.768    21052612.512    21052616.394

 121041318.83747  94317921.61445  23033388.634    23033387.489    23033389.851

 16  1  1  0 21 30.0000000  0  8G26G23G29G03G14G31G16G32
 106724164.97448  83161708.48948  20308913.174    20308913.519    20308913.663
  20308913.500
 117919659.16748  91885454.50846  22439362.223    22439357.479    22439363.139

 121764451.28347  94881399.02146  23171001.051    23170999.258    23171001.248
  23170999.879
 116286845.35048  90613130.87147  22128642.407    22128641.864    22128642.543
  22128641.754
 129476802.53646 100891027.42442  24638594.238    24638593.828    24638594.819

 112781896.75748  87882020.04047  21461660.984    21461657.185    21461661.443
  21461657.793
 110555930.73048  86147499.60846  21038068.695    21038065.409    21038069.768

 121133996.87747  94390138.23345  23051024.893    23051023.530    23051025.744

 16  1  1  0 22  0.0000000  0  8G26G23G29G03G14G31G16G32
 106710711.00948  83151224.75648  20306353.220    20306353.408    20306353.781
  20306353.755
 117832955.47448  91817893.22646  22422863.102    22422858.579    22422864.166

 121775378.97647  94889914.10546  23173080.999    23173077.751    23173081.009
  23173079.449
 116334780.91348  90650483.25447  22137764.323    22137763.635    22137764.611
  22137764.204
 129580379.79346 100971736.90842  24658303.749    24658302.567    24658304.303

 112843496.74448  87930020.02047  21473382.959    21473379.338    21473383.551
  21473379.641
 110479959.89348  86088301.58947  21023611.886    21023608.784    21023613.069

 121226898.22347  94462528.85345  23068703.685    23068702.383    23068704.951

 16  1  1  0 22 30.0000000  0  8G26G23G29G03G14G31G16G32
 106697806.46348  83141169.29548  20303897.527    20303897.869    20303898.146
  20303898.074
 117746486.84748  91750515.14046  22406408.582    22406403.925    22406409.515

 121786897.05947  94898889.24446  23175272.560    23175269.612    23175273.009
  23175270.305
 116383232.64547  90688237.81847  22146984.589    22146983.636    22146984.665
  22146984.287
 129684083.78546 101052545.11942  24678038.212    24678036.702    24678040.976

 112905289.97648  87978170.48647  21485141.796    21485138.291    21485142.265
  21485138.653
 110404464.37448  86029473.92647  21009245.560    21009242.443    21009246.538

 121320020.11247  94535091.32245  23086423.680    23086422.610    23086425.174

 16  1  1  0 23  0.0000000  0  8G26G23G29G03G14G31G16G32
 106685450.72148  83131541.46748  20301546.193    20301546.656    20301547.100
  20301546.494
 117660254.97048  91683321.44946  22389999.456    22389994.453    22390000.127

 121799005.66447  94908324.48146  23177576.828    23177574.180    23177576.871
  23177574.310
 116432198.58248  90726393.07447  22156302.458    22156301.639    22156302.828
  22156302.221
 129787913.19446 101133451.02142  24697796.551    24697795.193    24697798.575

 112967275.29648  88026470.74347  21496937.189    21496933.562    21496937.567
  21496933.837
 110329446.02548  85971018.08047  20994970.067    20994966.846    20994971.363

 121413359.77747  94607823.48945  23104185.427    23104184.633    23104186.895

 16  1  1  0 23 30.0000000  0  8G26G23G29G03G14G31G16G32
 106673643.47149  83122340.98448  20299299.397    20299299.832    20299300.125
  20299299.797
 117574262.82948  91616314.49846  22373635.707    22373631.151    22373636.562

 121811704.62947  94918219.76046  23179993.394    23179990.122    23179994.014
  23179990.672
 116481676.55047  90764947.30947  22165717.991    22165716.986    22165718.255
  22165717.031
 129891866.56146 101214453.54142  24717578.626    24717577.964    24717578.049

 113029451.86648  88074919.99347  21508769.026    21508765.387    21508769.256
  21508765.952
 110254906.85448  85912935.62847  20980785.729    20980782.556    20980787.438

 121506914.29747  94680723.08445  23121988.021    23121987.674    23121989.773

 16  1  1  0 24  0.0000000  0  8G26G23G29G03G14G31G16G32
 106662384.63848  83113567.90448  20297156.927    20297157.247    20297157.513
  20297157.113
 117488512.56548  91549496.09146  22357318.203    22357313.127    22357319.014

 121824993.97547  94928575.04146  23182521.870    23182519.577    23182522.388
  23182519.216
 116531664.45448  90803898.90047  22175230.489    22175229.297    22175230.701
  22175229.627
 129995942.32746 101295551.41643  24737384.159    24737382.279    24737383.979

 113091818.84648  88123517.48147  21520637.235    21520633.645    21520637.551
  21520633.499
 110180848.21248  85855227.61047  20966692.832    20966689.674    20966693.429

 121600681.02347  94753788.03745  23139832.436    23139830.588    23139833.545

 16  1  1  0 24 30.0000000  0  8G26G23G29G03G14G31G16G32
 106651673.91048  83105222.02148  20295118.604    20295118.876    20295119.194
  20295119.010
 117403006.24948  91482867.73346  22341046.420    22341041.889    22341047.210

 121838873.27047  94939390.07846  23185163.114    23185160.271    23185163.372
  23185160.143
 116582160.18247  90843246.20647  22184839.562    22184838.757    22184839.541
  22184839.249
 130100139.07446 101376743.54743  24757212.191    24757210.723    24757212.427

 113154374.88848  88172261.87347  21532541.641    21532538.092    21532542.231
  21532538.258
 110107271.22948  85797894.89847  20952691.612    20952688.331    20952692.497

 121694657.14047  94827016.15245  23157715.113    23157713.174    23157716.447

 16  1  1  0 25  0.0000000  0  8G26G23G29G03G14G31G16G32
 106641510.52348  83097302.48748  20293184.717    20293184.949    20293185.300
  20293184.887
 117317746.34848  91416431.36546  22324822.353    22324817.174    22324822.892

 121853342.39047  94950664.71646  23187916.733    23187914.677    23187917.252
  23187914.567
 116633161.53647  90882987.50047  22194544.767    22194543.855    22194544.669
  22194544.149
 130204455.32746 101458028.82343  24777061.887    24777061.239    24777063.996

 113217120.25248  88221153.91447  21544482.051    21544478.417    21544482.217
  21544478.921
 110034178.16848  85740939.27647  20938782.302    20938779.113    20938783.757

 121788839.84647  94900405.24845  23175637.832    23175635.784    23175639.018

 16  1  1  0 25 30.0000000  0  8G26G23G29G03G14G31G16G32
 106631894.28648  83089809.24148  20291354.938    20291355.047    20291355.638
  20291355.235
 117232735.96548  91350189.66846  22308644.964    22308640.144    22308645.587

 121868401.07747  94962398.81546  23190781.768    23190779.584    23190782.973
  23190778.912
 116684666.34248  90923121.09547  22204345.798    22204345.194    22204346.352
  22204345.533
 130308889.73546 101539406.14043  24796936.016    24796935.582    24796937.721

 113280055.06348  88270194.19647  21556457.971    21556454.469    21556458.238
  21556454.518
 109961570.45548  85684361.85347  20924965.773    20924962.375    20924966.879

 121883226.38047  94973953.16545  23193598.636    23193597.221    23193600.082

 16  1  1  0 26  0.0000000  0  8G26G23G29G03G14G31G16G32
 106622824.95249  83082742.17048  20289628.974    20289629.226    20289629.592
  20289629.354
 117147976.25648  91284143.25746  22292515.407    22292511.067    22292516.692

 121884049.01647  94974591.97946  23193759.542    23193757.326    23193759.946
  23193757.775
 116736672.42947  90963645.30147  22214242.430    22214241.478    22214242.444
  22214242.060
 130413440.99946 101620874.53743  24816832.251    24816830.044    24816833.403

 113343177.66248  88319380.78247  21568469.762    21568466.351    21568470.134
  21568467.083
 109889450.16648  85628164.22947  20911241.630    20911238.358    20911242.693

 121977813.94147  95047657.73745  23211598.476    23211597.109    23211599.735

 16  1  1  0 26 30.0000000  0  8G26G23G29G03G14G31G16G32
 106614302.06048  83076100.86248  20288007.332    20288007.450    20288007.994
  20288007.488
 117063469.69648  91218293.95046  22276434.985    22276429.878    22276435.654

 121900286.25647  94987244.43046  23196849.655    23196846.473    23196849.998
  23196847.612
 116789177.60147  91004558.42147  22224233.359    22224232.862    22224233.848
  22224233.854
 130518107.42246 101702432.63843  24836749.245    24836748.744    24836750.134

 113406486.64448  88368712.50247  21580516.749    21580513.609    21580517.212
  21580514.600
 109817818.20948  85572347.13247  20897610.527    20897607.258    20897611.566

 122072599.65947  95121516.69645  23229635.375    23229634.223    23229636.364

 16  1  1  0 27  0.0000000  0  8G26G23G29G03G14G31G16G32
 106606325.39349  83069885.26348  20286489.408    20286489.474    20286490.014
  20286489.596
 116979218.55748  91152643.62146  22260402.215    22260397.876    22260403.199

 121917111.84547  95000355.22346  23200051.343    23200048.798    23200051.882
  23200049.622
 116842179.57547  91045858.65547  22234319.334    22234318.600    22234319.570
  22234319.316
 130622887.36846 101784079.19543  24856687.277    24856686.880    24856687.199

 113469982.06748  88418189.70747  21592599.465    21592596.181    21592600.226
  21592596.841
 109746676.50948  85516912.04747  20884072.831    20884069.553    20884074.028

 122167580.80047  95195527.93945  23247709.054    23247708.831    23247710.143

 16  1  1  0 27 30.0000000  0  8G26G23G29G03G14G31G16G32
 106598894.40148  83064094.86948  20285075.410    20285075.621    20285075.716
  20285076.004
 116895225.46448  91087194.44246  22244418.732    22244414.527    22244419.461

 121934525.61947  95013924.34646  23203364.857    23203362.555    23203365.609
  23203363.262
 116895676.09547  91087544.23847  22244499.494    22244498.616    22244499.452
  22244499.111
 130727780.01446 101865813.56443  24876649.520    24876648.468    24876649.539

 113533662.24648  88467810.73947  21604717.463    21604713.718    21604717.852
  21604714.310
 109676027.07748  85461860.55047  20870628.609    20870625.060    20870629.802

 122262754.61647  95269689.30445  23265819.935    23265819.302    23265821.397

 16  1  1  0 28  0.0000000  0  8G26G23G29G03G14G31G16G32
 106592008.56648  83058729.26248  20283764.958    20283765.295    20283765.648
  20283765.060
 116811492.74248  91021948.14946  22228485.032    22228480.557    22228485.717

 121952527.74847  95027952.02546  23206790.641    23206788.602    23206790.920
  23206788.771
 116949664.96047  91129613.48147  22254772.953    22254772.613    22254773.177
  22254773.229
 130832783.43746 101947634.26942  24896630.293    24896628.781    24896630.953

 113597526.77448  88517575.32847  21616870.485    21616866.859    21616870.933
  21616867.269
 109605870.63348  85407193.19747  20857278.265    20857274.745    20857279.588

 122358118.23547  95343998.57045  23283966.892    23283966.562    23283968.354

 16  1  1  0 28 30.0000000  0  9G09G26G23G29G03G14G31G16G32
 131766232.71845                                                  25074281.990
  25074283.226
 106585667.32948  83053787.95448  20282558.361    20282558.631    20282558.824
  20282558.949
 116728022.40648  90956906.25046  22212601.703    22212597.015    22212602.265

 121971117.73447  95042437.71846  23210328.103    23210326.386    23210329.331
  23210326.351
 117004143.82148  91172064.52947  22265139.979    22265139.277    22265140.139
  22265140.121
 130937896.30746 102029540.24042  24916631.385    24916632.278    24916633.878

 113661574.88348  88567482.91247  21629058.464    21629054.684    21629058.675
  21629055.096
 109536209.04948  85352911.43347  20844021.938    20844018.676    20844023.054

 122453668.87547  95418453.57245  23302149.695    23302149.226    23302150.856

 16  1  1  0 29  0.0000000  0  9G09G26G23G29G03G14G31G16G32
 131659104.19645                                                  25053893.709
  25053895.144
 106579870.37649  83049270.77648  20281455.219    20281455.628    20281455.856
  20281455.783
 116644817.12048  90892070.93246  22196767.922    22196763.360    22196768.608

 121990295.03147  95057381.05746  23213977.172    23213974.863    23213977.789
  23213975.835
 117059110.39547  91214895.59747  22275599.885    22275599.202    22275600.034
  22275599.485
 131043117.23846 102111530.46842  24936656.428    24936654.015    24936655.675

 113725805.93948  88617532.94747  21641281.292    21641277.910    21641281.867
  21641278.411
 109467043.88448  85299016.50647  20830860.246    20830856.738    20830861.062

 122549403.81447  95493052.20145  23320368.026    23320366.790    23320369.673

 16  1  1  0 29 30.0000000  0  9G09G26G23G29G03G14G31G16G32
 131552012.74545                                                  25033515.071
  25033512.908
 106574617.51348  83045177.72648  20280455.599    20280455.973    20280456.370
  20280455.988
 116561879.23448  90827444.01846  22180985.371    22180981.035    22180986.263

 122010059.31747  95072781.82946  23217738.933    23217736.896    23217739.520
  23217737.486
 117114562.39848  91258104.91647  22286152.215    22286151.628    22286152.256
  22286151.719
 131148444.34945 102193603.41941  24956698.170    24956699.565    24956699.350

 113790219.17148  88667724.97047  21653538.783    21653535.347    21653539.375
  21653535.659
 109398376.78048  85245509.66547  20817793.309    20817789.926    20817794.270

 122645320.14347  95567792.14845  23338619.836    23338619.215    23338621.506

 16  1  1  0 30  0.0000000  0  9G09G26G23G29G03G14G31G16G32
 131444959.87646                                                  25013144.295
  25013143.935
 106569907.96548  83041508.12248  20279559.130    20279559.577    20279559.974
  20279559.597
 116479211.04448  90763027.17446  22165254.164    22165249.793    22165255.195

 122030409.66647  95088639.23346  23221611.330    23221608.405    23221611.515
  23221608.803
 117170497.45248  91301690.65347  22296796.233    22296795.210    22296796.075
  22296796.056
 131253876.64545 102275758.32041  24976761.185    24976761.279    24976761.669

 113854813.92648  88718058.43847  21665830.783    21665827.426    21665831.375
  21665827.901
 109330209.53448  85192392.33947  20804821.358    20804818.323    20804822.303

 122741415.13847  95642671.33645  23356907.097    23356905.454    23356907.836

 16  1  1  0 30 30.0000000  0  9G09G26G23G29G03G14G31G16G32
 131337947.94446                                                  24992780.358
  24992780.663
 106565740.90348  83038261.14148  20278766.245    20278766.489    20278766.636
  20278766.691
 116396814.95748  90698822.45546  22149574.679    22149570.165    22149575.905

 122051345.29447  95104952.72946  23225595.009    23225593.066    23225596.012
  23225593.822
 117226913.24847  91345651.00347  22307531.581    22307531.050    22307532.276
  22307531.406
 131359412.61345 102357993.9754   24996843.609    24996846.818    24996844.625

 113919589.08348  88768532.42247  21678157.052    21678154.038    21678157.376
  21678154.411
 109262543.02248  85139665.17447  20791945.037    20791941.810    20791946.188

 122837686.06747  95717687.60745  23375226.664    23375225.521    23375228.115

 16  1  1  0 31  0.0000000  0  9G09G26G23G29G03G14G31G16G32
 131230978.72646 102257906.26545  24972425.316    24972424.522    24972423.928
  24972424.878
 106562115.77448  83035436.35648  20278076.329    20278076.619    20278077.010
  20278076.561
 116314693.04048  90634831.35146  22133947.405    22133942.910    22133948.393

 122072866.63747  95121722.65446  23229690.281    23229688.449    23229690.855
  23229688.984
 117283807.39847  91389984.09247  22318358.119    22318357.328    22318358.381
  22318357.869
 131465050.72045 102440309.2334   25016946.759    25016945.701    25016944.708

 113984544.41748  88819146.91447  21690517.890    21690514.675    21690518.447
  21690515.006
 109195379.02548  85087329.59147  20779164.125    20779160.972    20779165.152

 122934130.04847  95792838.71245  23393578.756    23393578.001    23393580.354

 16  1  1  0 31 30.0000000  0  8G09G26G23G29G03G31G16G32
 131124053.77745 102174587.90545  24952076.036    24952078.115    24952076.564
  24952078.181
 106559032.09349  83033033.42748  20277489.630    20277489.910    20277490.318
  20277489.961
 116232847.69348  90571055.75646  22118372.800    22118368.443    22118373.418

 122094973.42147  95138948.71346  23233897.071    23233894.732    23233897.727
  23233895.229
 117341177.51247  91434688.04947  22329275.440    22329274.674    22329275.350
  22329275.188
 114049679.40548  88869901.48247  21702912.427    21702909.163    21702912.944
  21702909.242
 109128718.98748  85035386.69347  20766479.251    20766476.162    20766480.400

 123030744.19147  95868122.39845  23411963.655    23411963.131    23411965.504

 16  1  1  0 32  0.0000000  0  8G09G26G23G29G03G31G16G32
 131017175.99146 102091306.49945  24931737.554    24931739.644    24931739.024
  24931740.298
 106556489.30949  83031051.96448  20277005.760    20277006.043    20277006.457
  20277005.972
 116151281.28948  90507497.36846  22102851.468    22102846.893    22102852.302

 122117664.10246  95156629.71746  23238214.856    23238212.856    23238215.582
  23238213.855
 117399021.23847  91479761.05747  22340282.735    22340282.004    22340282.738
  22340282.244
 114114992.85448  88920795.14247  21715341.250    21715337.955    21715341.532
  21715338.353
 109062564.00748  84983837.37247  20753890.407    20753887.277    20753891.921

 123127525.86547  95943536.63945  23430381.030    23430380.045    23430382.565

 16  1  1  0 32 30.0000000  0  8G09G26G23G29G03G31G16G32
 130910346.94346 102008063.12845  24911408.689    24911409.073    24911411.544
  24911409.628
 106554486.81249  83029491.49848  20276624.822    20276625.139    20276625.466
  20276625.089
 116069996.65548  90444158.74446  22087383.278    22087378.758    22087384.121

 122140938.80547  95174765.89246  23242644.875    23242641.788    23242645.074
  23242642.240
 117457336.11947  91525201.19447  22351379.879    22351379.018    22351380.300
  22351379.649
 114180483.92348  88971827.16947  21727803.743    21727800.252    21727803.893
  21727800.909
 108996915.76148  84932682.91247  20741397.845    20741394.685    20741399.219

 123224472.25047  96019079.23845  23448830.498    23448829.153    23448830.671

 16  1  1  0 33  0.0000000  0  8G09G26G23G29G03G31G16G32
 130803568.10746 101924858.91645  24891090.099    24891089.645    24891090.858
  24891089.045
 106553024.04449  83028351.63248  20276346.486    20276346.740    20276347.036
  20276346.888
 115988995.57048  90381041.00046  22071969.324    22071964.972    22071969.950

 122164796.36047  95193356.16346  23247183.231    23247181.621    23247184.184
  23247182.096
 117516119.72047  91571006.56647  22362566.193    22362565.145    22362566.423
  22362565.609
 114246152.06648  89022997.20247  21740299.889    21740296.591    21740300.527
  21740296.455
 108931775.62448  84881924.36947  20729002.174    20728998.906    20729003.618

 123321580.47147  96094747.93744  23467308.727    23467307.636    23467310.080

 16  1  1  0 33 30.0000000  0  8G09G26G23G29G03G31G16G32
 130696841.05646 101841694.78445  24870780.827    24870781.977    24870782.059
  24870780.832
 106552100.27048  83027631.74548  20276170.858    20276171.058    20276171.339
  20276171.341
 115908280.81148  90318146.53146  22056609.894    22056605.349    22056610.824

 122189236.47447  95212400.46646  23251835.076    23251832.650    23251835.100
  23251832.824
 117575369.63848  91617175.31147  22373840.970    22373839.859    22373840.970
  22373840.580
 114311996.50248  89074304.55547  21752829.664    21752826.677    21752829.801
  21752827.316
 108867144.81448  84831562.69447  20716703.406    20716700.013    20716704.642

 123418847.82847  96170540.62345  23485817.560    23485816.841    23485819.735

 16  1  1  0 34  0.0000000  0  8G09G26G23G29G03G31G16G32
 130590168.59145 101758573.24246  24850481.005    24850482.905    24850482.107
  24850483.264
 106551714.97749  83027331.51648  20276097.507    20276097.808    20276098.087
  20276098.060
 115827854.58248  90255476.92646  22041305.032    22041300.520    22041305.832

 122214258.20447  95231897.86746  23256596.289    23256593.663    23256596.525
  23256594.997
 117635083.39047  91663705.50847  22385204.218    22385202.807    22385204.424
  22385202.974
 114378016.62148  89125748.84847  21765392.890    21765389.520    21765393.254
  21765390.115
 108803024.91148  84781599.10747  20704501.754    20704498.420    20704503.190

 123516271.45247  96246455.08244  23504356.774    23504356.597    23504357.952

 16  1  1  0 34 30.0000000  0  8G09G26G23G29G03G31G16G32
 130483552.37546 101675495.54445  24830192.880    24830194.176    24830193.519
  24830193.968
 106551867.52349  83027450.46748  20276126.408    20276126.841    20276126.961
  20276126.999
 115747718.78548  90193033.49546  22026055.836    22026051.219    22026056.648

 122239860.68947  95251847.92846  23261469.005    23261465.690    23261469.361
  23261465.626
 117695258.47547  91710595.16647  22396655.244    22396654.092    22396655.317
  22396654.297
 114444211.57648  89177329.26747  21777989.387    21777986.144    21777989.819
  21777986.263
 108739417.14048  84732034.59947  20692397.580    20692394.361    20692398.964

 123613848.55847  96322489.14344  23522924.404    23522923.489    23522926.500

 16  1  1  0 35  0.0000000  0  8G09G26G23G29G03G31G16G32
 130376994.86246 101592463.86846  24809914.538    24809916.774    24809916.461
  24809918.339
 106552556.87348  83027987.64848  20276257.521    20276257.862    20276258.175
  20276257.873
 115667876.11848  90130818.45146  22010861.931    22010857.506    22010862.785

 122266043.61547  95272250.15546  23266451.080    23266447.980    23266451.312
  23266448.631
 117755892.47947  91757842.41947  22408193.194    22408192.094    22408193.695
  22408192.597
 114510580.91948  89229045.66847  21790619.306    21790615.693    21790619.662
  21790615.883
 108676322.76248  84682870.12347  20680391.185    20680387.844    20680392.381

 123711576.36247  96398640.61544  23541522.173    23541521.216    23541523.573

 16  1  1  0 35 30.0000000  0  8G09G26G23G29G03G31G16G32
 130270496.49046 101509477.73646  24789649.228    24789651.814    24789650.575
  24789651.428
 106553782.34949  83028942.52448  20276490.738    20276491.089    20276491.514
  20276491.155
 115588329.00948  90068833.63246  21995724.884    21995720.215    21995724.990

 122292806.23147  95293104.01146  23271544.008    23271541.828    23271544.114
  23271542.427
 117816982.79547  91805445.23547  22419818.348    22419817.577    22419818.181
  22419817.888
 114577123.51648  89280896.99347  21803282.070    21803278.466    21803282.689
  21803279.383
 108613743.55548  84634107.09647  20668482.707    20668479.411    20668483.786

 123809452.09947  96474907.36844  23560148.316    23560147.080    23560149.129

 16  1  1  0 36  0.0000000  0  8G09G26G23G29G03G31G16G32
 130164060.74446 101426540.73746  24769396.566    24769397.034    24769396.933
  24769395.729
 106555543.25448  83030314.58748  20276825.890    20276826.258    20276826.489
  20276826.362
 115509079.98248  90007081.16246  21980644.164    21980639.755    21980645.026

 122320147.77447  95314408.91546  23276746.867    23276744.129    23276746.844
  23276744.543
 117878526.99947  91853401.73747  22431530.048    22431529.236    22431530.269
  22431529.655
 114643839.03948  89332883.01847  21815977.596    21815974.013    21815978.000
  21815974.576
 108551680.04248  84585745.89847  20656672.558    20656669.180    20656673.983

 123907472.93347  96551287.17944  23578800.950    23578799.512    23578802.170

 16  1  1  0 36 30.0000000  0  8G09G26G23G29G03G31G16G32
