     2.11           OBSERVATION DATA    G (GPS)             RINEX VERSION / TYPE
teqc  2016Apr1                          20181217 15:57:44UTCPGM / RUN BY / DATE
ZIMM                                                        MARKER NAME
14001M004                                                   MARKER NUMBER
TRIMBLE NETR9       SWISSTOPO                               OBSERVER / AGENCY
5429R49141          TRIMBLE NETR9       5.10                REC # / TYPE / VERS
99390               TRM29659.00     NONE                    ANT # / TYPE
  4331297.3480   567555.6400  4633133.7280                  APPROX POSITION XYZ
        0.0000        0.0000        0.0000                  ANTENNA: DELTA H/E/N
     1     1                                                WAVELENGTH FACT L1/2
     6    L1    L2    P1    P2    C1    C2                  # / TYPES OF OBSERV
    30.0000                                                 INTERVAL
Linux 2.4.20-8|Pentium IV|gcc -static|Linux|486/DX+         COMMENT
teqc  2016Apr1                          20181217 15:25:49UTCCOMMENT
teqc  2016Apr1                          20170829 22:11:47UTCCOMMENT
teqc  2015Nov6                          20160102 00:11:17UTCCOMMENT
Linux2.6.32-279.el6.x86_64|x86_64|gcc|Win64-MinGW64|=       COMMENT
     2.11           OBSERVATION DATA    M (MIXED)           COMMENT
NetR9 5.10          Receiver Operator   01-JAN-16 00:00:00  COMMENT
L2C CARRIER PHASE MEASUREMENTS: PHASE SHIFTS REMOVED        COMMENT
L2C PHASE MATCHES L2 P PHASE                                COMMENT
GLONASS C/A & P PHASE MATCH: PHASE SHIFTS REMOVED           COMMENT
GIOVE-A if present is mapped to satellite ID 51             COMMENT
GIOVE-B if present is mapped to satellite ID 52             COMMENT
Forced Modulo Decimation to 30 seconds                      COMMENT
teqc edited: all GLONASS satellites excluded                COMMENT
teqc edited: all Galileo satellites excluded                COMMENT
teqc edited: GLONASS # 1 - 24 excluded                      COMMENT
teqc edited: all Galileo satellites excluded                COMMENT
teqc edited: GLONASS # 1 - 24 excluded                      COMMENT
teqc edited: all Galileo satellites excluded                COMMENT
teqc edited: GLONASS # 1 - 24 excluded                      COMMENT
teqc edited: all Galileo satellites excluded                COMMENT
  2016     1     1     0     0    0.0000000     GPS         TIME OF FIRST OBS
                                                            END OF HEADER
 16  1  1  0  0  0.0000000  0  8G14G26G29G12G31G02G21G25
 125119647.621 7  97495831.61546                  23809482.98046  23809479.891 7

 128684316.350 6 100273525.89647                  24487816.62547  24487809.273 6
  24487816.996 7
 105817639.748 9  82455320.88749                  20136427.88749  20136423.922 9
  20136428.441 9
 120044196.739 8  93540967.07349                  22843650.03949  22843646.078 8
  22843650.664 7
 112464372.453 9  87634583.91249                  21401260.41049  21401257.313 9
  21401261.133 9
 121353038.175 8  94560842.53948                  23092714.88748  23092714.078 8

 131407068.484 5 102395138.48045                  25005936.95345  25005931.563 5

 107804174.107 9  84003295.34349                  20514452.23449  20514446.211 9
  20514453.305 9
 16  1  1  0  0 30.0000000  0  8G14G26G29G12G31G02G21G25
 125207089.274 6  97563967.98846                  23826122.10946  23826119.125 6

 128589884.897 7 100199942.96247                  24469846.96147  24469839.898 7
  24469846.871 7
 105792158.199 9  82435465.15149                  20131579.06349  20131574.883 9
  20131579.457 9
 120128395.169 8  93606576.21749                  22859673.11349  22859668.477 8
  22859673.414 7
 112416024.395 9  87596910.09249                  21392059.93449  21392057.109 9
  21392060.957 9
 121401044.133 8  94598249.77248                  23101850.35948  23101849.086 8

 131306263.772 3                                                  24986748.664 3

 107835482.389 9  84027691.40549                  20520409.93049  20520403.734 9
  20520411.066 9
 16  1  1  0  1  0.0000000  0  8G14G26G29G12G31G02G21G25
 125294730.282 6  97632259.66646                  23842800.40646  23842795.789 6

 128495487.896 6 100126386.88246                  24451882.94946  24451876.391 6
  24451883.371 6
 105767154.937 9  82415982.10249                  20126821.11749  20126816.953 9
  20126821.543 9
 120212751.857 8  93672308.67648                  22875725.16448  22875720.992 8
  22875726.090 7
 112368146.673 9  87559602.77149                  21382949.01249  21382946.242 9
  21382950.004 9
 121449500.349 8  94636007.86348                  23111071.60948  23111070.016 8

 131205465.139 6 102238037.00055                  24967572.65645  24967568.195 6

 107867136.323 9  84052356.80849                  20526433.35949  20526427.398 9
  20526434.516 9
 16  1  1  0  1 30.0000000  0  8G14G26G29G12G31G02G21G25
 125382567.675 5  97700704.43846                  23859514.82446  23859510.484 5

 128401125.834 6 100052857.99946                  24433926.07046  24433920.453 6
  24433926.770 6
 105742629.253 9  82396871.19249                  20122153.77349  20122149.805 9
  20122154.434 9
 120297265.660 8  93738163.57048                  22891807.44148  22891803.984 8
  22891808.473 7
 112320740.533 9  87522662.92249                  21373928.03949  21373925.000 9
  21373928.969 9
 121498405.010 8  94674115.38948                  23120377.82448  23120377.055 8

 131104674.963 6 102159499.25646                  24948393.12946  24948388.953 6

 107899135.334 9  84077291.09749                  20532522.28949  20532516.625 9
  20532523.547 9
 16  1  1  0  2  0.0000000  0  8G14G26G29G12G31G02G21G25
 125470598.220 6  97769299.64346                  23876266.75046  23876262.484 6

 128306799.809 6  99979357.22847                  24415977.25047  24415970.656 6
  24415977.914 6
 105718581.260 9  82378132.50649                  20117577.73049  20117573.625 9
  20117578.254 9
 120381935.944 8  93804140.41548                  22907919.42248  22907915.664 8
  22907920.316 7
 112273808.366 9  87486092.39849                  21364997.23849  21364994.336 9
  21364997.891 9
 121547756.984 8  94712571.48148                  23129768.33648  23129768.008 8

 131003895.06414 102080969.64155                  24929213.96945  24929210.078 4

 107931479.517 9  84102494.36249                  20538677.57849  20538671.375 9
  20538678.805 9
 16  1  1  0  2 30.0000000  0  8G14G26G29G12G31G02G21G25
 125558819.103 6  97838043.18246                  23893055.64846  23893051.313 6

 128212510.793 6  99905885.28247                  24398034.42247  24398027.367 6
  24398034.668 7
 105695011.320 9  82359766.33049                  20113092.60949  20113088.234 9
  20113093.012 9
 120466762.233 8  93870238.79148                  22924061.46948  22924058.078 8
  22924062.156 7
 112227352.009 9  87449892.63149                  21356156.98049  21356154.039 9
  21356158.078 9
 121597554.825 8  94751374.99848                  23139244.65248  23139244.367 8

 130903128.544 6 102002450.11945                  24910037.08245  24910035.953 6

 107964168.911 9  84127966.61549                  20544898.19949  20544891.969 9
  20544899.371 9
 16  1  1  0  3  0.0000000  0  8G14G26G29G12G31G02G21G25
 125647226.987 6  97906932.47746                  23909877.48446  23909874.344 6

 128118259.393 6  99832442.64047                  24380099.62947  24380091.453 6
  24380099.465 7
 105671919.091 9  82341772.39649                  20108698.68449  20108694.234 9
  20108698.809 9
 120551743.920 8  93936458.25648                  22940233.41448  22940229.039 8
  22940234.172 7
 112181372.922 9  87414064.77049                  21347407.10549  21347404.586 9
  21347408.078 9
 121647796.902 8  94790524.67548                  23148806.08248  23148804.703 8

 130802377.254 3 101923942.65645                  24890866.52745  24890862.234 3

 107997203.088 9  84153707.52649                  20551184.41449  20551178.164 9
  20551185.535 9
 16  1  1  0  3 30.0000000  0  8G14G26G29G12G31G02G21G25
 125735818.943 6  97975965.11646                  23926737.21146  23926732.461 6

 128024046.555 6  99759030.06247                  24362171.61347  24362164.453 6
  24362171.434 7
 105649304.138 9  82324150.36649                  20104394.89549  20104390.375 9
  20104395.262 9
 120636880.376 8  94002798.34448                  22956434.21148  22956430.906 8
  22956434.910 7
 112135873.414 9  87378610.59449                  21338748.91049  21338745.984 9
  21338750.066 9
 121698481.519 8  94830019.19148                  23158451.04748  23158450.594 8

 130701643.454 6 101845448.95045                  24871697.94145  24871694.531 6

 108030581.995 9  84179717.05949                  20557536.24649  20557530.117 9
  20557537.203 9
 16  1  1  0  4  0.0000000  0  8G14G26G29G12G31G02G21G25
 125824592.202 6  98045139.16546                  23943629.83246  23943625.391 6

 127929873.106 6  99685648.16346                  24344250.25046  24344243.148 6
  24344250.695 6
 105627166.404 9  82306900.18649                  20100182.00849  20100177.766 9
  20100182.555 9
 120722170.536 8  94069258.19348                  22972664.20348  22972660.719 8
  22972665.305 7
 112090854.769 9  87343531.12549                  21330182.40649  21330179.281 9
  21330183.340 9
 121749607.203 8  94869857.38048                  23168179.80548  23168178.969 8

 130600929.480 6 101766970.42645                  24852531.52745  24852529.016 6

 108064305.373 9  84205995.01549                  20563953.70749  20563947.414 9
  20563954.855 9
 16  1  1  0  4 30.0000000  0  8G14G26G29G12G31G02G21G25
 125913543.040 6  98114451.45346                  23960556.54746  23960552.852 6

 127835739.909 7  99612297.63046                  24326337.03946  24326330.461 7
  24326337.523 7
 105605505.665 9  82290021.70749                  20096060.35949  20096056.031 9
  20096060.762 9
 120807614.702 8  94135838.04849                  22988923.81349  22988920.266 8
  22988924.602 7
 112046318.759 9  87308827.72849                  21321707.36749  21321704.297 9
  21321708.117 9
 121801172.203 8  94910037.90248                  23177991.80548  23177991.211 8

 130500237.683 3 101688509.26645                  24833371.06645  24833367.055 3

 108098373.120 9  84232541.30849                  20570436.38349  20570430.258 9
  20570437.316 9
 16  1  1  0  5  0.0000000  0  8G14G26G29G12G31G02G21G25
 126002668.611 6  98183899.94146                  23977516.53546  23977512.906 6

 127741647.816 6  99538979.13247                  24308432.01647  24308425.930 6
  24308432.672 7
 105584321.310 9  82273514.41749                  20092028.91449  20092024.617 9
  20092029.414 9
 120893211.589 8  94202536.89348                  23005212.39548  23005208.906 8
  23005212.828 7
 112002267.358 9  87274501.95049                  21313324.57449  21313321.555 9
  21313325.516 9
 121853174.781 8  94950559.40148                  23187887.77348  23187887.148 8

 130399570.215 5 101610067.22246                  24814215.42646  24814212.242 5

 108132785.023 9  84259355.78649                  20576984.58249  20576978.695 9
  20576985.652 9
 16  1  1  0  5 30.0000000  0  8G14G26G29G12G31G02G21G25
 126091965.738 6  98253482.11545                  23994509.05545  23994504.492 6

 127647597.634 6  99465693.29946                  24290535.23446  24290528.094 6
  24290535.184 6
 105563613.265 9  82257378.29449                  20088088.36749  20088084.094 9
  20088088.844 9
 120978960.893 8  94269354.52148                  23021530.19948  23021526.422 8
  23021530.496 7
 111958702.296 9  87240555.14149                  21305034.72349  21305031.563 9
  21305035.641 9
 121905613.574 8  94991420.80648                  23197866.64548  23197866.078 8

 130298929.328 5 101531645.71745                  24795063.55545  24795060.727 5

 108167540.943 9  84286438.31549                  20583598.56349  20583592.508 9
  20583599.410 9
 16  1  1  0  6  0.0000000  0  8G14G26G29G12G31G02G21G25
 126181431.435 6  98323195.66846                  24011534.46546  24011530.203 6

 127553590.018 6  99392440.63347                  24272645.81347  24272639.406 6
  24272646.348 7
 105543381.199 9  82241613.05849                  20084238.13349  20084233.805 9
  20084238.453 9
 121064861.616 8  94336290.11048                  23037876.13348  23037872.703 8
  23037876.906 7
 111915625.196 9  87206988.56949                  21296837.29749  21296834.227 9
  21296838.031 9
 121958487.086 8  95032620.93248                  23207928.39548  23207927.594 8

 130198317.210 3 101453246.66245                  24775917.14145  24775913.430 3

 108202640.439 9  84313788.57149                  20590278.08649  20590271.789 9
  20590279.289 9
 16  1  1  0  6 30.0000000  0  8G14G26G29G12G31G02G21G25
 126271062.821 7  98393038.30246                  24028589.43446  24028586.719 7

 127459626.384 6  99319222.23347                  24254765.18847  24254757.961 6
  24254765.340 7
 105523625.319 9  82226218.88049                  20080478.94549  20080474.523 9
  20080479.492 9
 121150913.316 7  94403343.34948                  23054251.48048  23054247.914 7
  23054252.191 7
 111873037.945 9  87173803.69549                  21288733.16849  21288730.242 9
  21288734.051 9
 122011793.621 8  95074158.49448                  23218072.12948  23218071.070 8

 130097736.586 5 101374872.20146                  24756777.99246  24756774.578 5

 108238083.776 9  84341406.74549                  20597022.50049  20597016.469 9
  20597023.602 9
 16  1  1  0  7  0.0000000  0  8G14G26G29G12G31G02G21G25
 126360856.869 6  98463007.60946                  24045678.45746  24045672.797 6

 127365707.392 6  99246038.59847                  24236892.75047  24236886.891 6
  24236892.738 6
 105504344.905 9  82211195.18949                  20076809.82049  20076805.719 9
  20076810.480 9
 121237114.602 8  94470513.16948                  23070654.84448  23070651.484 8
  23070655.652 7
 111830941.843 9  87141001.52749                  21280722.39149  21280719.586 9
  21280723.398 9
 122065531.546 8  95116032.19048                  23228297.98448  23228297.383 8

 129997189.860 5 101296524.17645                  24737644.39845  24737640.344 5

 108273870.567 9  84369292.55049                  20603832.50849  20603826.477 9
  20603833.402 9
 16  1  1  0  7 30.0000000  0  8G14G26G29G12G31G02G21G25
 126450809.876 6  98533100.98246                  24062794.90246  24062790.984 6

 127271833.655 6  99172890.24447                  24219029.93047  24219023.250 6
  24219030.000 7
 105485539.805 9  82196541.87349                  20073231.27049  20073226.984 9
  20073231.844 9
 121323465.938 7  94537799.89548                  23087086.89548  23087083.125 7
  23087088.105 7
 111789338.735 9  87108583.50949                  21272805.96549  21272802.719 9
  21272806.945 9
 122119699.175 8  95158240.75448                  23238605.41048  23238605.367 8

 129896678.98715 101218204.00455                  24718517.48845  24718513.633 5

 108310000.433 9  84397445.68849                  20610707.57449  20610701.359 9
  20610709.012 9
 16  1  1  0  8  0.0000000  0  8G14G26G29G12G31G02G21G25
 126540919.230 6  98603315.98546                  24079942.23846  24079939.344 6

 127178006.146 7  99099777.91347                  24201175.46947  24201168.703 7
  24201175.207 7
 105467209.473 9  82182258.51049                  20069743.01649  20069739.000 9
  20069743.551 9
 121409966.941 7  94605203.23048                  23103548.23048  23103543.828 7
  23103548.785 7
 111748230.542 9  87076551.14349                  21264983.19549  21264980.102 9
  21264984.000 9
 122174294.532 8  95200782.59648                  23248994.13348  23248994.703 8

 129796206.013 6 101139913.35246                  24699398.39546  24699395.445 6

 108346473.138 9  84425865.97549                  20617648.05549  20617642.164 9
  20617649.348 9
 16  1  1  0  8 30.0000000  0  8G14G26G29G12G31G02G21G25
 126631182.021 6  98673650.60046                  24097119.51246  24097115.211 6

 127084225.943 7  99026702.44047                  24183328.87147  24183322.180 7
  24183328.992 6
 105449354.097 9  82168345.23849                  20066345.08249  20066341.148 9
  20066345.734 9
 121496616.407 7  94672722.26148                  23120037.09848  23120032.828 7
  23120037.539 7
 111707619.135 9  87044905.87849                  21257254.77749  21257252.047 9
  21257255.645 9
 122229316.176 8  95243656.61048                  23259465.30548  23259464.492 8

 129695773.359 5 101061654.18145                  24680287.27345  24680283.281 5

 108383288.744 9  84454553.44649                  20624654.14549  20624648.180 9
  20624655.234 9
 16  1  1  0  9  0.0000000  0  8G14G26G29G12G31G02G21G25
 126721595.004 6  98744102.25145                  24114323.33645  24114319.250 6

 126990493.846 7  98953664.45347                  24165491.83647  24165484.695 7
  24165492.332 7
 105431972.726 9  82154801.32749                  20063037.69149  20063033.766 9
  20063038.285 9
 121583413.312 7  94740356.19548                  23136553.62948  23136549.695 7
  23136554.098 7
 111667505.613 9  87013648.58649                  21249621.61749  21249618.680 9
  21249622.586 9
 122284762.411 7  95286861.46548                  23270016.82848  23270015.156 7

 129595383.35216 100983428.28355                  24661183.41845  24661179.656 6

 108420446.875 9  84483507.83449                  20631725.10949  20631718.758 9
  20631725.969 9
 16  1  1  0  9 30.0000000  0  8G14G26G29G12G31G02G21G25
 126812154.764 6  98814668.30846                  24131557.26646  24131552.648 6

 126896810.849 7  98880664.72647                  24147665.16847  24147658.438 7
  24147665.438 7
 105415065.328 9  82141626.74449                  20059820.19549  20059816.430 9
  20059820.977 9
 121670357.565 7  94808104.94148                  23153098.42248  23153094.484 7
  23153099.188 7
 111627891.946 9  86982780.78349                  21242083.42649  21242080.508 9
  21242084.457 9
 122340631.527 8  95330395.82248                  23280647.73448  23280647.023 8

 129495038.844 5 100905237.65945                  24642088.03545  24642084.938 5

 108457947.476 9  84512729.07249                  20638861.35549  20638855.211 9
  20638862.242 9
 16  1  1  0 10  0.0000000  0  8G14G26G29G12G31G02G21G25
 126902858.609 7  98885346.63846                  24148815.78546  24148813.961 7

 126803177.680 7  98807703.84047                  24129847.80547  24129840.477 7
  24129847.613 7
 105398631.493 9  82128821.17449                  20056692.81649  20056689.102 9
  20056693.543 9
 121757448.512 7  94875967.99148                  23169671.84848  23169667.703 7
  23169672.508 7
 111588779.485 9  86952303.53249                  21234640.44549  21234637.625 9
  21234641.270 9
 122396921.739 7  95374258.32248                  23291359.45348  23291358.516 7

 129394741.527 5 100827083.94245                  24623002.60545  24622998.625 5

 108495790.131 9  84542216.84849                  20646062.34449  20646056.133 9
  20646063.305 9
 16  1  1  0 10 30.0000000  0  8G14G26G29G12G31G02G21G25
 126993703.215 6  98956134.50546                  24166106.18846  24166100.297 6

 126709595.360 7  98734782.54847                  24112039.60547  24112032.289 7
  24112039.527 7
 105382670.634 9  82116384.14849                  20053655.64149  20053652.023 9
  20053656.344 9
 121844685.343 8  94943944.70748                  23186272.66448  23186268.625 8
  23186273.203 7
 111550170.101 9  86922218.28949                  21227293.58649  21227290.516 9
  21227294.477 9
 122453631.331 8  95418447.61048                  23302151.05948  23302150.031 8

 129294493.858 6 100748968.96445                  24603926.27745  24603923.156 6

 108533974.718 9  84571971.07349                  20653328.89849  20653322.516 9
  20653329.879 9
 16  1  1  0 11  0.0000000  0  8G14G26G29G12G31G02G21G25
 127084685.855 5  99027030.26645                  24183416.22745  24183413.398 5

 126616065.105 7  98661901.86147                  24094240.98847  24094234.328 7
  24094241.074 7
 105367182.905 9  82104315.79749                  20050708.26649  20050704.633 9
  20050709.023 9
 121932067.371 7  95012034.56848                  23202900.26248  23202896.813 7
  23202901.332 7
 111512065.707 9  86892526.54649                  21220042.37149  21220039.531 9
  21220043.285 9
 122510758.693 7  95462962.44848                  23313022.07848  23313021.133 7

 129194298.298 4 100670894.44445                  24584858.62545  24584854.797 4

 108572501.276 9  84601991.75849                  20660660.27349  20660653.977 9
  20660661.152 9
 16  1  1  0 11 30.0000000  0  8G14G26G29G12G31G02G21G25
 127175803.156 7  99098030.57846                  24200757.77746  24200753.430 7

 126522587.378 6  98589062.08547                  24076452.36347  24076444.984 6
  24076452.816 7
 105352167.323 9  82092615.35649                  20047851.57049  20047847.383 9
  20047852.152 9
 122019594.125 7  95080237.21448                  23219555.70748  23219552.430 7
  23219556.906 7
 111474467.360 9  86863229.12049                  21212887.78549  21212884.609 9
  21212889.020 9
 122568301.898 7  95507801.30848                  23323972.27348  23323970.313 7

 129094156.860 5 100592862.16446                  24565802.84446  24565799.305 5

 108611369.156 9  84632278.41549                  20668056.44549  20668050.484 9
  20668057.387 9
 16  1  1  0 12  0.0000000  0  8G14G26G29G12G31G02G21G25
 127267051.817 6  99169133.48946                  24218119.60546  24218116.891 6

 126429163.214 6  98516264.04747                  24058674.49647  24058668.383 6
  24058674.953 7
 105337623.499 9  82081282.51849                  20045083.96949  20045079.805 9
  20045084.727 9
 122107264.959 7  95148552.12048                  23236239.71948  23236235.875 7
  23236240.316 7
 111437376.392 9  86834327.06249                  21205829.81649  21205826.758 9
  21205830.582 9
 122626259.438 7  95552963.01048                  23335001.14548  23334999.688 7

 128994071.962 6 100514874.00845                  24546757.64845  24546754.047 6

 108650578.222 9  84662830.92149                  20675517.57049  20675511.555 9
  20675518.938 9
 16  1  1  0 12 30.0000000  0  8G14G26G29G12G31G02G21G25
 127358429.085 5  99240336.49446                  24235510.43446  24235504.820 5

 126335793.568 7  98443508.48547                  24040906.55547  24040900.422 7
  24040906.754 7
 105323551.137 9  82070317.05849                  20042405.44549  20042401.828 9
  20042406.070 9
 122195079.326 8  95216978.86648                  23252950.03148  23252946.258 8
  23252950.648 7
 111400794.784 9  86805821.90249                  21198868.81649  21198865.359 9
  21198869.684 9
 122684629.624 7  95598446.27648                  23346108.77348  23346107.180 7

 128894046.019 5 100436931.68045                  24527722.58645  24527719.750 5

 108690128.221 9  84693649.09549                  20683043.43049  20683037.758 9
  20683044.633 9
 16  1  1  0 13  0.0000000  0  8G14G26G29G12G31G02G21G25
 127449932.106 7  99311637.60846                  24252921.50446  24252919.047 7

 126242479.571 7  98370796.32947                  24023149.57447  24023143.414 7
  24023150.063 6
 105309949.785 9  82059718.61649                  20039817.43449  20039813.508 9
  20039817.945 9
 122283036.474 7  95285516.85848                  23269688.32848  23269684.273 7
  23269688.879 7
 111364724.078 9  86777714.85149                  21192004.51649  21192001.305 9
  21192005.199 9
 122743410.064 7  95644249.23048                  23357293.51248  23357293.227 7

 128794081.214 5 100359037.04246                  24508700.65246  24508696.828 5

 108730019.114 9  84724732.90049                  20690635.02049  20690628.570 9
  20690635.988 9
 16  1  1  0 13 30.0000000  0  8G14G26G29G12G31G02G21G25
 127541557.588 5  99383033.96046                  24270358.84446  24270353.156 5

 126149222.084 6  98298128.14047                  24005402.91047  24005396.625 6
  24005403.199 7
 105296819.197 9  82049487.00849                  20037318.55949  20037314.820 9
  20037319.047 9
 122371135.754 7  95354165.62948                  23286452.57848  23286448.797 7
  23286453.230 7
 111329165.659 9  86750006.99149                  21185237.48049  21185234.867 9
  21185238.613 9
 122802599.274 7  95690370.69548                  23368557.30548  23368556.398 7

 128694180.048 5 100281192.02746                  24489690.01646  24489686.430 5

 108770250.609 9  84756082.10749                  20698290.44949  20698284.164 9
  20698291.484 9
 16  1  1  0 14  0.0000000  0  8G14G26G29G12G31G02G21G25
 127633302.456 6  99454523.54546                  24287814.70746  24287812.484 6

 126056022.176 6  98225504.87547                  23987667.46947  23987661.453 6
  23987667.902 7
 105284158.767 9  82039621.75149                  20034909.39149  20034905.555 9
  20034910.027 9
 122459376.434 7  95422924.57147                  23303244.27747  23303240.148 7
  23303244.684 7
 111294121.292 9  86722699.68449                  21178569.23449  21178566.039 9
  21178570.141 9
 122862195.698 7  95736809.44848                  23379898.35948  23379897.664 7

 128594344.730 4 100203398.34345                  24470692.21145  24470688.000 4

 108810822.570 9  84787696.62149                  20706011.25449  20706004.977 9
  20706012.277 9
 16  1  1  0 14 30.0000000  0  8G14G26G29G12G31G02G21G25
 127725163.731 5  99526103.65945                  24305297.08245  24305291.828 5

 125962880.748 6  98152927.13147                  23969943.88347  23969937.367 6
  23969944.059 7
 105271968.031 9  82030122.48549                  20032589.80549  20032585.695 9
  20032590.031 9
 122547758.250 7  95491793.50548                  23320062.70348  23320058.914 7
  23320063.352 7
 111259592.408 9  86695794.05349                  21171998.32049  21171995.414 9
  21171999.160 9
 122922197.396 7  95783564.01048                  23391316.16448  23391315.258 7

 128494577.236 5 100125657.39245                  24451706.08245  24451703.664 5

 108851734.600 9  84819576.11749                  20713796.61349  20713790.219 9
  20713797.570 9
 16  1  1  0 15  0.0000000  0  8G14G26G29G12G31G02G21G25
 127817138.106 6  99597772.05645                  24322798.79745  24322795.734 6

 125869798.610 6  98080395.61247                  23952231.15247  23952224.055 6
  23952231.578 7
 105260246.454 9  82020988.80849                  20030359.04349  20030355.258 9
  20030359.449 9
 122636280.468 7  95560771.82548                  23336908.61348  23336904.273 7
  23336908.676 7
 111225580.218 9  86669291.04349                  21165526.38349  21165523.070 9
  21165527.324 9
 122982602.384 7  95830632.81548                  23402810.45348  23402809.883 7

 128394880.251 4 100047971.43045                  24432734.67245  24432731.414 4

 108892986.378 9  84851720.35149                  20721646.25049  20721640.367 9
  20721647.414 9
 16  1  1  0 15 30.0000000  0  8G14G26G29G12G31G02G21G25
 127909222.684 6  99669526.19146                  24340321.85946  24340318.227 6

 125776776.740 7  98007911.06447                  23934529.37547  23934522.453 7
  23934529.711 7
 105248993.178 9  82012220.03049                  20028217.64849  20028213.844 9
  20028218.246 9
 122724941.974 7  95629858.67048                  23353779.96948  23353775.594 7
  23353780.699 7
 111192086.146 9  86643191.75749                  21159152.91049  21159149.609 9
  21159153.648 9
 123043408.978 7  95878014.59948                  23414381.94148  23414381.523 7

 128295255.987 5  99970342.22846                  24413777.48846  24413773.586 5

 108934577.586 9  84884129.08149                  20729560.72749  20729554.906 9
  20729561.938 9
 16  1  1  0 16  0.0000000  0  8G14G26G29G12G31G02G21G25
 128001414.168 6  99741363.75446                  24357865.50446  24357862.141 6

 125683816.066 7  97935474.19847                  23916839.18047  23916832.711 7
  23916839.414 7
 105238207.653 9  82003815.74449                  20026165.14849  20026161.313 9
  20026165.773 9
 122813742.956 7  95699054.18748                  23370678.00848  23370673.938 7
  23370678.223 7
 111159111.782 9  86617497.44249                  21152877.73049  21152874.461 9
  21152878.707 9
 123104615.139 7  95925707.70848                  23426028.82448  23426027.766 7

 128195706.677 5  99892771.26045                  24394833.48445  24394828.859 5

 108976507.966 9  84916802.09949                  20737540.19549  20737533.961 9
  20737541.340 9
 16  1  1  0 16 30.0000000  0  8G14G26G29G12G31G02G21G25
 128093709.985 7  99813282.58646                  24375428.66046  24375426.258 7

 125590917.687 7  97863085.84747                  23899161.34047  23899155.117 7
  23899161.637 7
 105227890.054 9  81995776.06649                  20024202.03949  20024197.852 9
  20024202.465 9
 122902682.029 7  95768357.33248                  23387602.55148  23387597.766 7
  23387602.727 7
 111126658.477 9  86592209.14549                  21146702.27349  21146698.906 9
  21146703.113 9
 123166219.262 7  95973710.93348                  23437752.29748  23437751.125 7

 128096234.554 5  99815260.54645                  24375905.02745  24375901.078 5

 109018777.350 9  84949739.26749                  20745583.49649  20745577.297 9
  20745584.500 9
 16  1  1  0 17  0.0000000  0  8G14G26G29G12G31G02G21G25
 128186106.867 5  99885280.09445                  24393011.80545  24393006.305 5

 125498082.915 7  97790747.07247                  23881495.93847  23881489.125 7
  23881496.004 7
 105218039.594 9  81988100.39949                  20022327.65649  20022323.289 9
  20022328.297 9
 122991758.776 7  95837767.75048                  23404553.22748  23404549.375 7
  23404553.934 7
 111094727.952 9  86567328.20649                  21140626.23449  21140623.047 9
  21140627.109 9
 123228219.647 7  96022022.91948                  23449550.32048  23449549.375 7

 127996842.236 6  99737812.03846                  24356991.21946  24356988.141 6

 109061385.715 9  84982940.57949                  20753691.61349  20753685.391 9
  20753692.582 9
 16  1  1  0 17 30.0000000  0  8G14G26G29G12G31G02G21G25
 128278601.714 7  99957354.07046                  24410612.30546  24410609.766 7

 125405312.033 6  97718458.08547                  23863842.21147  23863834.906 6
  23863842.141 7
 105208654.774 9  81980787.56449                  20020541.77749  20020537.570 9
  20020542.250 9
 123080972.607 7  95907284.98248                  23421530.65648  23421526.328 7
  23421531.285 7
 111063321.374 9  86542855.54249                  21134649.44549  21134646.359 9
  21134650.422 9
 123290613.603 7  96070641.59448                  23461423.25448  23461422.750 7

 127897531.643 5  99660427.14045                  24338092.46545  24338090.805 5

 109104332.231 9  85016405.38549                  20761864.50849  20761858.102 9
  20761865.473 9
 16  1  1  0 18  0.0000000  0  8G14G26G29G12G31G02G21G25
 128371191.714 5 100029501.98446                  24428232.97346  24428227.203 5

 125312606.798 6  97646220.27347                  23846200.95347  23846194.602 6
  23846200.793 7
 105199736.644 9  81973838.39449                  20018844.69549  20018840.539 9
  20018845.082 9
 123170323.104 7  95976908.70747                  23438533.02747  23438529.141 7
  23438533.434 7
 111032440.466 9  86518792.48949                  21128772.85949  21128770.016 9
  21128773.801 9
 123353400.018 7  96119566.08147                  23473370.97747  23473370.711 7

 127798305.463 5  99583108.04145                  24319210.13745  24319206.508 5

 109147617.170 9  85050133.89849                  20770101.18849  20770095.031 9
  20770102.414 9
 16  1  1  0 18 30.0000000  0  8G14G26G29G12G31G02G21G25
 128463873.244 5 100101721.47445                  24445867.54345  24445865.352 5

 125219967.775 6  97574034.02547                  23828571.98047  23828565.141 6
  23828572.609 7
 105191283.512 9  81967251.54749                  20017235.90649  20017231.844 9
  20017236.328 9
 123259809.408 7  96046638.25748                  23455561.82048  23455558.141 7
  23455562.453 7
 111002085.957 9  86495139.62249                  21122996.64549  21122993.445 9
  21122997.566 9
 123416576.914 7  96168794.82848                  23485393.48448  23485392.391 7

 127699165.810 6  99505856.39746                  24300345.10946  24300341.977 6

 109191239.931 9  85084125.65549                  20778402.28949  20778396.266 9
  20778403.074 9
 16  1  1  0 19  0.0000000  0  8G14G26G29G12G31G02G21G25
 128556643.836 5 100174010.14646                  24463522.95346  24463518.305 5

 125127396.366 7  97501900.46547                  23810955.81347  23810949.781 7
  23810956.652 7
 105183295.224 9  81961026.92849                  20015716.00849  20015711.680 9
  20015716.418 9
 123349430.771 7  96116473.08047                  23472615.55147  23472612.500 7
  23472616.973 6
 110972259.823 9  86471898.46449                  21117321.07049  21117318.195 9
  21117321.938 9
 123480142.458 7  96218326.42448                  23497489.64848  23497489.055 7

 127600114.970 5  99428673.95645                  24281496.00045  24281492.547 5

 109235200.587 9  85118380.70549                  20786767.89849  20786761.805 9
  20786769.020 9
 16  1  1  0 19 30.0000000  0  8G14G26G29G12G31G02G21G25
 128649500.140 4 100246365.63145                  24481192.91845  24481187.969 4

 125034893.097 7  97429820.02847                  23793353.25847  23793346.703 7
  23793353.918 7
 105175770.694 9  81955163.67249                  20014283.75449  20014279.930 9
  20014284.223 9
 123439187.004 7  96186412.96448                  23489696.23448  23489692.188 7
  23489697.531 7
 110942962.697 9  86449069.53249                  21111745.78149  21111742.680 9
  21111746.816 9
 123544094.304 7  96268159.04247                  23509658.50447  23509657.859 7

 127501155.023 5  99351562.30645                  24262663.82845  24262661.359 5

 109279498.322 9  85152898.40349                  20795197.27049  20795191.070 9
  20795198.379 9
 16  1  1  0 20  0.0000000  0  8G14G26G29G12G31G02G21G25
 128742439.191 5 100318785.71946                  24498877.85246  24498873.641 5

 124942459.240 6  97357793.66447                  23775763.57847  23775756.930 6
  23775764.441 7
 105168709.649 9  81949661.57349                  20012939.91849  20012935.984 9
  20012940.348 9
 123529077.254 7  96256457.26448                  23506801.88748  23506798.055 7
  23506802.695 7
 110914196.681 9  86426654.44949                  21106271.62949  21106268.836 9
  21106272.441 9
 123608430.944 7  96318291.48947                  23521901.82047  23521901.063 7

 127402288.182 5  99274523.19546                  24243850.98846  24243846.703 5

 109324133.115 9  85187678.75649                  20803691.20349  20803684.891 9
  20803692.430 9
 16  1  1  0 20 30.0000000  0  8G14G26G29G12G31G02G21G25
 128835457.858 5 100391267.72146                  24516580.03546  24516574.672 5

 124850095.853 7  97285822.21447                  23758187.20747  23758180.969 7
  23758187.492 7
 105162111.592 9  81944520.24449                  20011684.48449  20011680.602 9
  20011685.000 9
 123619100.780 7  96326605.40748                  23523933.24248  23523929.180 7
  23523933.789 7
 110885962.375 9  86404653.67749                  21100899.31649  21100896.313 9
  21100899.887 9
 123673150.231 7  96368722.10947                  23534217.70747  23534217.531 7

 127303517.477 5  99197559.06346                  24225055.82446  24225051.391 5

 109369104.668 9  85222721.50849                  20812248.45749  20812242.500 9
  20812249.387 9
 16  1  1  0 21  0.0000000  0  8G14G26G29G12G31G02G21G25
 128928553.352 5 100463809.74345                  24534293.90245  24534289.469 5

 124757803.879 7  97213906.40347                  23740625.35247  23740617.922 7
  23740625.484 7
 105155975.397 9  81939738.81549                  20010516.90649  20010512.961 9
  20010517.488 9
 123709256.641 7  96396856.69948                  23541088.63348  23541084.398 7
  23541089.590 7
 110858261.584 9  86383068.63849                  21095628.16049  21095624.984 9
  21095628.906 9
 123738250.371 7  96419449.49647                  23546605.55147  23546604.672 7

 127204844.615 6  99120671.14346                  24206278.49646  24206276.086 6

 109414412.637 9  85258026.40749                  20820870.33649  20820864.383 9
  20820871.625 9
 16  1  1  0 21 30.0000000  0  8G14G26G29G12G31G02G21G25
 129021722.502 6 100536409.01546                  24552025.17246  24552020.102 6

 124665584.449 7  97142047.13947                  23723076.46147  23723069.219 7
  23723076.563 7
 105150300.651 9  81935316.94949                  20009436.99649  20009432.992 9
  20009437.465 9
 123799544.639 7  96467210.94547                  23558269.43447  23558266.258 7
  23558270.695 6
 110831095.133 9  86361899.97549                  21090457.89849  21090455.117 9
  21090459.078 9
 123803729.537 7  96470472.20747                  23559066.02347  23559064.938 7

 127106271.721 5  99043861.11246                  24187521.00446  24187516.922 5

 109460056.766 9  85293593.25349                  20829556.38349  20829550.352 9
  20829557.473 9
 16  1  1  0 22  0.0000000  0  8G14G26G29G12G31G02G21G25
 129114962.264 5 100609063.29645                  24569767.22745  24569762.758 5

 124573438.746 6  97070245.31647                  23705541.35247  23705534.703 6
  23705541.754 7
 105145087.313 9  81931254.62449                  20008444.84049  20008441.273 9
  20008445.469 9
 123889964.379 7  96537667.85047                  23575476.23047  23575471.922 7
  23575477.285 6
 110804464.840 9  86341149.08449                  21085390.65649  21085387.672 9
  21085391.785 9
 123869585.462 7  96521788.51248                  23571598.36348  23571597.359 7

 127007801.886 5  98967131.34446                  24168782.87546  24168778.758 5

 109506036.910 9  85329421.92349                  20838306.01249  20838300.055 9
  20838306.984 9
 16  1  1  0 22 30.0000000  0  8G14G26G29G12G31G02G21G25
 129208269.434 5 100681770.31946                  24587522.77046  24587519.289 5

 124481367.549 7  96998501.54947                  23688020.34047  23688014.672 7
  23688020.727 7
 105140333.743 9  81927550.55549                  20007540.72349  20007536.242 9
  20007541.227 9
 123980514.659 7  96608226.45848                  23592707.64148  23592703.461 7
  23592708.602 7
 110778371.877 9  86320816.89149                  21080425.31349  21080422.281 9
  21080426.328 9
 123935816.372 7  96573397.01147                  23584201.49247  23584200.445 7

 126909437.014 6  98890483.41246                  24150063.66846  24150061.336 6

 109552352.403 9  85365511.91249                  20847119.68849  20847113.313 9
  20847120.871 9
 16  1  1  0 23  0.0000000  0  8G14G26G29G12G31G02G21G25
 129301641.625 5 100754527.63845                  24605291.45745  24605285.969 5

 124389372.144 6  96926816.80447                  23670514.89147  23670508.453 6
  23670514.770 7
 105136039.912 9  81924204.72649                  20006723.29749  20006719.453 9
  20006723.645 9
 124071194.985 7  96678886.43148                  23609963.57448  23609959.766 7
  23609964.570 7
 110752816.956 9  86300903.95649                  21075562.66449  21075559.375 9
  21075563.539 9
 124002420.531 7  96625296.33947                  23596875.66047  23596874.953 7

 126811179.264 6  98813918.89646                  24131365.69946  24131362.563 6

 109599003.225 9  85401863.19149                  20855997.33649  20855990.695 9
  20855998.074 9
 16  1  1  0 23 30.0000000  0  8G14G26G29G12G31G02G21G25
 129395075.198 6 100827333.06646                  24623070.93046  24623067.352 6

 124297453.386 7  96855191.80447                  23653024.38347  23653016.695 7
  23653023.793 7
 105132204.594 9  81921216.17549                  20005993.30149  20005989.414 9
  20005993.840 9
 124162004.679 7  96749647.18647                  23627244.12147  23627240.344 7
  23627244.961 6
 110727801.199 9  86281411.14949                  21070802.03949  21070799.164 9
  21070802.535 9
 124069395.565 7  96677484.65647                  23609620.06647  23609619.523 7

 126713030.708 6  98737439.53746                  24112688.90246  24112685.727 6

 109645988.748 9  85438475.28149                  20864938.45349  20864931.781 9
  20864939.309 9
 16  1  1  0 24  0.0000000  0  8G14G26G29G12G31G02G21G25
 129488567.650 3 100900184.33545                  24640861.69545  24640855.836 3

 124205612.703 7  96783627.64347                  23635547.00847  23635539.625 7
  23635547.035 7
 105128827.798 9  81918584.91849                  20005350.59449  20005346.734 9
  20005351.145 9
 124252943.443 7  96820508.51748                  23644549.08648  23644545.227 7
  23644550.309 6
 110703326.385 9  86262339.84949                  21066144.76249  21066141.906 9
  21066145.395 9
 124136739.854 7  96729960.73447                  23622435.34047  23622435.609 7

 126614994.107 6  98661047.42246                  24094033.88746  24094030.484 6

 109693309.059 9  85475348.23049                  20873942.98049  20873936.688 9
  20873943.785 9
 16  1  1  0 24 30.0000000  0  9G14G26G29G05G12G31G02G21G25
 129582115.564 5 100973078.78646                  24658663.87146  24658659.242 5

 124113850.927 7  96712124.97147                  23618084.19947  23618078.117 7
  23618085.375 6
 105125908.148 9  81916309.88149                  20004795.08649  20004791.008 9
  20004795.457 9
 132218557.33315                                                  25160353.289 5

 124344010.596 7  96891469.92048                  23661878.41048  23661875.406 7
  23661879.031 7
 110679393.388 9  86243690.74449                  21061590.44949  21061587.508 9
  21061591.371 9
 124204450.895 7  96782722.57247                  23635320.50047  23635319.930 7

 126517071.555 6  98584744.15046                  24075399.63346  24075396.055 6

 109740963.552 9  85512481.59149                  20883011.74649  20883005.203 9
  20883012.723 9
 16  1  1  0 25  0.0000000  0  9G14G26G29G05G12G31G02G21G25
 129675715.952 5 101046014.07645                  24676475.19545  24676469.227 5

 124022169.053 7  96640684.55247                  23600637.15247  23600631.938 7
  23600638.223 7
 105123445.046 9  81914390.58949                  20004326.60949  20004322.258 9
  20004327.223 9
 132151261.513 6 102975019.91555                  25147551.87545  25147548.516 6
  25147553.379 3
 124435205.142 7  96962530.56748                  23679232.26248  23679228.172 7
  23679233.707 7
 110656003.254 9  86225464.65749                  21057139.54349  21057136.711 9
  21057140.172 9
 124272527.069 7  96835768.93847                  23648275.39847  23648273.891 7

 126419265.254 6  98508531.45246                  24056787.27746  24056784.195 6

 109788951.823 9  85549875.04049                  20892142.98449  20892137.000 9
  20892144.066 9
 16  1  1  0 25 30.0000000  0  9G14G26G29G05G12G31G02G21G25
 129769366.250 5 101118988.32945                  24694295.34445  24694291.789 5

 123930568.554 7  96569307.54147                  23583206.77747  23583200.367 7
  23583207.176 7
 105121437.798 9  81912826.51449                  20003944.60949  20003940.500 9
  20003945.336 9
 132084244.758 5 102922799.06845                  25134798.99245  25134795.586 5
  25134799.980 3
 124526526.330 7  97033689.87547                  23696610.94947  23696606.773 7
  23696611.703 6
 110633157.302 9  86207662.60249                  21052792.31349  21052788.664 9
  21052793.055 9
 124340966.531 7  96889098.36647                  23661299.24247  23661297.570 7

 126321577.628 6  98432411.20246                  24038198.32846  24038195.234 6

 109837273.817 9  85587528.53249                  20901338.45749  20901332.492 9
  20901339.543 9
 16  1  1  0 26  0.0000000  0  9G14G26G29G05G12G31G02G21G25
 129863063.175 5 101191998.95246                  24712125.85546  24712121.883 5

 123839050.151 7  96497994.51947                  23565792.80147  23565785.133 7
  23565792.484 7
 105119885.721 9  81911617.11649                  20003649.04749  20003645.055 9
  20003649.398 9
 132017509.639 6 102870797.66345                  25122100.46145  25122096.508 6
  25122101.078 5
 124617973.876 7  97104947.70047                  23714012.35947  23714008.094 7
  23714012.891 6
 110610856.797 9  86190285.58649                  21048548.53549  21048545.359 9
  21048549.434 9
 124409767.151 7  96942709.23147                  23674391.12547  23674389.992 7

 126224010.732 6  98356385.08146                  24019632.30946  24019628.414 6

 109885928.970 9  85625441.62449                  20910597.49249  20910591.094 9
  20910598.461 9
 16  1  1  0 26 30.0000000  0  9G14G26G29G05G12G31G02G21G25
 129956803.647 5 101265043.38145                  24729965.00845  24729959.672 5

 123747615.227 7  96426746.55147                  23548392.48447  23548385.578 7
  23548392.973 7
 105118788.181 9  81910761.90049                  20003440.41049  20003436.313 9
  20003440.898 9
 131951059.362 6 102819018.26146                  25109456.39146  25109452.430 6
  25109456.789 5
 124709547.102 7  97176303.45947                  23731437.92647  23731434.047 7
  23731439.238 6
 110589102.503 9  86173334.17349                  21044408.76249  21044405.523 9
  21044409.531 9
 124478926.802 7  96996599.88347                  23687551.35947  23687551.414 7

 126126567.232 6  98280455.08846                  24001088.93046  24001085.344 6

 109934917.045 9  85663614.14149                  20919919.57449  20919913.250 9
  20919920.441 9
 16  1  1  0 27  0.0000000  0  9G14G26G29G05G12G31G02G21G25
 130050584.681 3 101338119.52343                  24747809.64843  24747805.406 3

 123656264.815 7  96355564.41648                  23531008.93048  23531002.563 7
  23531009.402 7
 105118144.114 9  81910260.04349                  20003317.28549  20003313.555 9
  20003317.816 9
 131884896.554 6 102767462.87146                  25096866.39846  25096860.711 6
  25096866.648 6
 124801245.333 7  97247756.59347                  23748888.39847  23748883.492 7
  23748888.871 7
 110567895.700 9  86156809.37949                  21040373.05149  21040370.172 9
  21040373.852 9
 124548443.436 7  97050768.69747                  23700780.09847  23700779.242 7

 126029249.199 6  98204622.83246                  23982569.71146  23982566.703 6

 109984237.720 9  85702045.82449                  20929304.89549  20929298.555 9
  20929305.617 9
 16  1  1  0 27 30.0000000  0  9G14G26G29G05G12G31G02G21G25
 130144403.551 5 101411225.14546                  24765663.43046  24765659.219 5

 123564999.852 6  96284448.86947                  23513641.21947  23513634.758 6
  23513641.656 7
 105117952.435 9  81910110.68849                  20003281.00049  20003277.469 9
  20003281.563 9
 131819023.962 6 102716133.58546                  25084330.71146  25084326.180 6
  25084331.531 5
 124893067.315 7  97319306.15047                  23766361.59047  23766357.367 7
  23766362.070 7
 110547236.960 9  86140711.64849                  21036441.88349  21036438.953 9
  21036442.730 9
 124618315.076 7  97105214.12147                  23714076.26247  23714075.625 7

 125932058.789 6  98128890.06346                  23964075.40246  23964072.047 6

 110033890.368 9  85740736.18749                  20938753.57849  20938747.273 9
  20938754.563 9
 16  1  1  0 28  0.0000000  0  9G14G26G29G05G12G31G02G21G25
 130238257.074 4 101484357.65145                  24783523.05545  24783518.891 4

 123473821.635 7  96213400.91147                  23496290.29747  23496285.414 7
  23496291.875 7
 105118212.848 9  81910313.62149                  20003330.54349  20003326.711 9
  20003331.164 9
 131753444.930 5 102665033.10046                  25071851.06646  25071847.289 5
  25071852.086 5
 124985013.089 7  97390952.15648                  23783858.19148  23783853.922 7
  23783858.668 6
 110527127.757 9  86125042.11849                  21032615.06649  21032612.188 9
  21032616.074 9
 124688539.745 7  97159934.62047                  23727440.21147  23727439.070 7

 125834998.436 6  98053258.63446                  23945605.38346  23945602.000 6

 110083874.840 9  85779685.11649                  20948265.71149  20948259.367 9
  20948266.672 9
 16  1  1  0 28 30.0000000  0  9G14G26G29G05G12G31G02G21G25
 130332142.289 5 101557514.95145                  24801389.24245  24801384.641 5

 123382731.281 7  96142421.42247                  23478957.35547  23478950.586 7
  23478957.445 7
 105118924.748 9  81910868.36249                  20003466.48449  20003462.234 9
  20003467.188 9
 131688161.942 5 102614163.27045                  25059428.50045  25059423.242 5
  25059429.449 6
 125077082.247 7  97462694.32847                  23801377.87547  23801374.141 7
  23801378.844 6
 110507569.022 9  86109801.53449                  21028893.19149  21028890.227 9
  21028894.395 9
 124759115.260 7  97214928.51147                  23740869.57847  23740868.555 7

 125738070.407 6  97977730.30246                  23927160.29746  23927157.398 6

 110134190.726 9  85818892.28249                  20957839.85549  20957833.797 9
  20957840.836 9
 16  1  1  0 29  0.0000000  0  9G14G26G29G05G12G31G02G21G25
 130426056.355 3 101630694.67345                  24819260.27745  24819256.617 3

 123291729.905 6  96071511.25848                  23461640.13348  23461633.094 6
  23461640.633 7
 105120087.077 9  81911774.08549                  20003687.34449  20003683.359 9
  20003687.895 9
 131623178.189 5 102563526.60145                  25047061.78545  25047056.773 5
  25047062.598 5
 125169273.673 7  97534531.77547                  23818921.43447  23818917.328 7
  23818922.625 6
 110488561.897 9  86094990.77349                  21025276.42249  21025273.414 9
  21025277.422 9
 124830039.737 7  97270194.33247                  23754365.65247  23754365.703 7

 125641276.811 6  97902306.71946                  23908741.13346  23908737.992 6

 110184837.660 9  85858357.41549                  20967477.84449  20967471.578 9
  20967478.848 9
 16  1  1  0 29 30.0000000  0  9G14G26G29G05G12G31G02G21G25
 130519995.927 5 101703894.33345                  24837136.28945  24837132.547 5

 123200818.750 7  96000671.40647                  23444339.85547  23444334.500 7
  23444340.633 7
 105121699.139 9  81913030.25049                  20003994.05149  20003990.180 9
  20003994.508 9
 131558496.242 6 102513125.11145                  25034751.95345  25034749.484 6
  25034752.750 3
 125261586.835 7  97606464.07847                  23836488.45747  23836483.688 7
  23836488.590 6
 110470107.203 9  86080610.48749                  21021765.03949  21021761.477 9
  21021765.852 9
 124901311.213 7  97325730.55247                  23767929.03547  23767928.008 7

 125544619.994 6  97826989.73846                  23890348.44546  23890344.547 6

 110235815.356 9  85898080.28249                  20977178.76249  20977172.266 9
  20977179.617 9
 16  1  1  0 30  0.0000000  0  9G14G26G29G05G12G31G02G21G25
 130613958.519 3 101777111.90245                  24855016.62545  24855012.211 3

 123109998.863 7  95929902.65048                  23427058.05148  23427050.852 7
  23427058.090 7
 105123759.683 9  81914635.87849                  20004386.23449  20004382.320 9
  20004386.953 9
 131494118.991 6 102462961.01046                  25022501.34046  25022498.672 6
  25022501.746 5
 125354020.809 7  97678490.48347                  23854078.22347  23854073.711 7
  23854079.051 6
 110452205.955 9  86066661.45149                  21018358.15649  21018355.273 9
  21018358.965 9
 124972927.566 7  97381535.49747                  23781557.68847  23781555.828 7

 125448102.373 6  97751781.20246                  23871981.13746  23871978.219 6

 110287123.329 9  85938060.50949                  20986942.12149  20986935.641 9
  20986943.051 9
 16  1  1  0 30 30.0000000  0  9G14G26G29G05G12G31G02G21G25
                                                                  24872897.531 5

 123019271.149 7  95859205.74448                  23409793.50448  23409786.984 7
  23409793.789 7
 105126267.067 9  81916589.69049                  20004863.16849  20004859.258 9
  20004863.629 9
 131430049.116 5 102413036.39246                  25010310.18446  25010306.148 5
  25010311.215 5
 125446574.786 7  97750610.42947                  23871690.73847  23871686.703 7
  23871691.609 6
 110434858.538 9  86053143.97149                  21015057.28149  21015054.039 9
  21015058.074 9
 125044886.436 7  97437607.32347                  23795251.15247  23795249.289 7

 125351725.818 6  97676682.55546                  23853641.62946  23853638.586 6

 110338760.930 9  85978297.58349                  20996768.28149  20996762.172 9
  20996769.402 9
 16  1  1  0 31  0.0000000  0  9G14G26G29G05G12G31G02G21G25
 130801940.441 5 101923591.22155                  24890789.19145  24890784.328 5

 122928637.314 7  95788581.98548                  23392546.89148  23392539.984 7
  23392546.695 7
 105129222.080 9  81918892.30449                  20005425.36349  20005421.672 9
  20005426.000 9
 131366289.971 6 102363353.97546                  24998177.34846  24998173.695 6
  24998178.246 5
 125539248.326 7  97822823.54447                  23889325.06347  23889321.367 7
  23889326.156 6
 110418066.603 9  86040059.33549                  21011861.98449  21011858.734 9
  21011863.133 9
 125117186.160 7  97493944.74847                  23809008.81347  23809007.461 7

 125255492.859 6  97601695.83646                  23835329.37146  23835325.781 6

 110390728.298 9  86018791.62249                  21006657.23449  21006651.172 9
  21006658.316 9
 16  1  1  0 31 30.0000000  0  9G14G26G29G05G12G31G02G21G25
 130895953.95014 101996848.46355                  24908679.30545  24908674.625 4

 122838098.369 7  95718032.15148                  23375316.46948  23375310.289 7
  23375317.309 7
 105132623.975 9  81921543.14649                  20006073.05549  20006069.016 9
  20006073.637 9
 131302844.549 5 102313915.98046                  24986105.36746  24986100.156 5
  24986105.430 5
 125632041.553 7  97895129.90947                  23906983.35547  23906979.063 7
  23906984.309 6
 110401831.128 9  86027408.31049                  21008772.45749  21008769.250 9
  21008773.043 9
 125189824.554 7  97550546.09747                  23822831.12547  23822830.234 7

 125159406.014 6  97526822.95146                  23817044.94546  23817041.383 6

 110443024.927 9  86059542.23249                  21016609.19149  21016603.023 9
  21016610.406 9
 16  1  1  0 32  0.0000000  0  9G14G26G29G05G12G31G02G21G25
 130989978.519 5 102070114.27446                  24926571.34446  24926567.742 5

 122747655.406 7  95647557.12048                  23358105.98048  23358099.273 7
  23358106.445 7
 105136470.814 9  81924540.68949                  20006805.35249  20006800.992 9
  20006805.930 9
 131239715.269 5 102264724.40346                  24974091.41846  24974086.438 5
  24974091.867 5
 125724953.115 7  97967528.51447                  23924663.75847  23924659.867 7
  23924664.707 6
 110386152.504 9  86015191.18349                  21005788.67249  21005785.758 9
  21005789.781 9
 125262799.286 7  97607409.54047                  23836717.32847  23836716.930 7

 125063467.178 6  97452065.41247                  23798788.54747  23798784.391 6

 110495650.263 9  86100548.96749                  21026623.73449  21026617.109 9
  21026624.789 9
 16  1  1  0 32 30.0000000  0  9G14G26G29G05G12G31G02G21G25
                                                                  24944460.328 4

 122657309.729 7  95577157.89448                  23340913.87548  23340907.516 7
  23340914.414 7
 105140762.366 9  81927884.76849                  20007621.14849  20007617.797 9
  20007621.738 9
 131176905.000 5 102215781.33746                  24962139.65246  24962134.469 5
  24962139.879 5
 125817982.403 7  98040018.83047                  23942367.54347  23942363.727 7
  23942368.070 6
 110371031.798 9  86003408.79649                  21002911.35249  21002908.070 9
  21002912.238 9
 125336108.673 6  97664533.74247                  23850668.23047  23850666.719 6

 124967678.757 6  97377425.05447                  23780559.41847  23780556.438 6

 110548604.075 9  86141811.66049                  21036700.10549  21036694.047 9
  21036701.113 9
 16  1  1  0 33  0.0000000  0  9G14G26G29G05G12G31G02G21G25
 131178049.82415 102216663.24855                  24962360.46945  24962355.805 5

 122567062.339 7  95506835.26248                  23323740.34848  23323733.813 7
  23323740.684 7
 105145497.142 9  81931574.21349                  20008522.74649  20008519.086 9
  20008523.164 9
 131114416.403 5 102167088.95946                  24950247.96946  24950242.844 5
  24950248.758 5
 125911128.469 7  98112600.13847                  23960092.49247  23960088.484 7
  23960092.840 6
 110356469.672 9  85992061.67749                  21000140.09049  21000137.313 9
  21000141.406 9
 125409750.459 6  97721916.94447                  23864682.17247  23864681.461 6

 124872043.075 7  97302903.73647                  23762360.52347  23762358.031 7

 110601885.717 9  86183329.80649                  21046839.65249  21046833.055 9
  21046840.789 9
 16  1  1  0 33 30.0000000  0  9G14G26G29G05G12G31G02G21G25
 131272090.218 5 102289941.43246                  24980255.33246  24980250.633 5

 122476914.362 7  95436590.08548                  23306586.14548  23306579.219 7
  23306586.590 7
 105150674.369 9  81935608.42449                  20009507.92249  20009503.969 9
  20009508.379 9
 131052252.512 6 102118649.60446                  24938418.16046  24938414.570 6
  24938419.082 4
 126004391.025 6  98185272.21147                  23977838.68047  23977834.719 6
  23977839.695 6
 110342466.974 9  85981150.47549                  20997475.48049  20997472.555 9
  20997476.281 9
 125483722.461 6  97779557.46047                  23878758.64147  23878757.789 6

 124776562.199 7  97228503.06547                  23744191.78147  23744187.797 7

 110655494.771 9  86225103.07949                  21057040.75449  21057034.781 9
  21057042.117 9
 16  1  1  0 34  0.0000000  0  9G14G26G29G05G12G31G02G21G25
 131366130.07613 102363219.13355                  24998150.62145  24998146.180 3

 122386867.262 7  95366423.51248                  23289450.57048  23289444.148 7
  23289450.996 7
 105156293.261 9  81939986.78549                  20010576.94149  20010573.500 9
  20010577.531 9
 130990416.214 6 102070465.50346                  24926651.33246  24926647.000 6
  24926651.785 5
 126097769.120 7  98258034.33347                  23995607.94147  23995604.164 7
  23995609.391 6
 110329024.680 9  85970675.94949                  20994917.80149  20994914.484 9
  20994919.113 9
 125558022.684 6  97837453.73347                  23892897.32047  23892896.422 6

 124681238.484 7  97154224.83646                  23726052.03546  23726048.781 7

 110709431.042 9  86267131.32849                  21067304.36749  21067298.516 9
  21067305.594 9
 16  1  1  0 34 30.0000000  0  9G14G26G29G05G12G31G02G21G25
 131460166.288 5 102436494.08645                  25016045.04345  25016040.852 5

 122296921.995 7  95296336.29948                  23272334.40248  23272327.898 7
  23272335.004 7
 105162352.306 9  81944708.13049                  20011730.02749  20011726.336 9
  20011730.875 9
 130928909.870 6 102022538.44146                  24914945.64846  24914942.641 6
  24914946.910 5
 126191262.292 7  98330886.12547                  24013399.50447  24013396.250 7
  24013400.746 6
 110316143.484 9  85960638.63849                  20992466.73449  20992463.453 9
  20992467.363 9
 125632648.701 6  97895603.88746                  23907097.57046  23907097.063 6

